"CollegeAthleteId","NflAthleteId","CollegeId","CollegeTeam","CollegeConference","NflTeam","Year","Overall","Round","Pick","Name","Position","Height","Weight","PreDraftRanking","PreDraftPositionRanking","PreDraftGrade","HometownInfo City","HometownInfo State","HometownInfo Country","HometownInfo Latitude","HometownInfo Longitude","HometownInfo CountyFips"
"-1006593","29334","2117","Central Michigan","Mid-American","Kansas City","2013","1","1","1","Eric Fisher","Offensive Tackle","79","306","2","2","96","Rochester","MI","USA","42.680588","-83.1338214","27109"
"-1035204","29963","245","Texas A&M","SEC","Jacksonville","2013","2","1","2","Luke Joeckel","Offensive Tackle","78","306","1","1","96","Arlington","TX","USA","32.701938999999996","-97.10562379033699","48439"
"-1028504","30376","2483","Oregon","Pac-12","Miami","2013","3","1","3","Dion Jordan","Outside Linebacker","78","248","6","1","95","Chandler","AZ","USA","33.3062223","-111.8413317","04013"
"-1027551","30253","201","Oklahoma","Big 12","Philadelphia","2013","4","1","4","Lane Johnson","Offensive Tackle","78","303","7","3","95","Groveton","TX","USA","31.0549071","-95.1257691","48455"
"502427","30245","252","BYU","FBS Independents","Detroit","2013","5","1","5","Ezekiel Ansah","Defensive End","77","271","8","1","95","Accra","","Ghana","","",""
"-1016638","29235","99","LSU","SEC","Cleveland","2013","6","1","6","Barkevious Mingo","Defensive End","76","241","11","2","93","West Monroe","LA","USA","32.5184775","-92.1476353","22073"
"381518","29242","153","North Carolina","ACC","Arizona","2013","7","1","7","Jonathan Cooper","Offensive Guard","74","311","10","2","94","Wilmington","NC","USA","34.2257282","-77.9447107","37129"
"487982","29974","277","West Virginia","Big 12","Los Angeles","2013","8","1","8","Tavon Austin","Wide Receiver","69","174","12","1","93","Baltimore","MD","USA","39.2908816","-76.610759","24510"
"515911","30220","333","Alabama","SEC","New York","2013","9","1","9","Dee Milliner","Cornerback","72","201","4","1","95","Millbrook","AL","USA","32.4798575","-86.3619163","01051"
"-1000979","29233","333","Alabama","SEC","Tennessee","2013","10","1","10","Chance Warmack","Offensive Guard","74","317","9","1","95","Atlanta","GA","USA","33.7490987","-84.3901849","13121"
"-1000962","30232","333","Alabama","SEC","Los Angeles","2013","11","1","11","D.J. Fluker","Offensive Tackle","77","339","16","4","92","Foley","AL","USA","30.4065868","-87.6835974","01003"
"512467","31079","248","Houston","Conference USA","Las Vegas","2013","12","1","12","D.J. Hayden","Cornerback","","191","","","","Houston","TX","USA","29.7589382","-95.3676974","48201"
"-1022494","29203","142","Missouri","SEC","New York","2013","13","1","13","Sheldon Richardson","Defensive Tackle","75","294","14","3","93","St. Louis","MO","USA","38.6268039","-90.1994097","29510"
"503048","29237","254","Utah","Pac-12","Carolina","2013","14","1","14","Star Lotulelei","Defensive Tackle","75","311","3","1","95","South Jordan","UT","USA","40.5621704","-111.929658","49035"
"481808","29251","251","Texas","Big 12","New Orleans","2013","15","1","15","Kenny Vaccaro","Safety","72","214","15","1","93","Brownwood","TX","USA","31.7070026","-98.9831022","48049"
"380849","30224","52","Florida State","ACC","Buffalo","2013","16","1","16","EJ Manuel","Quarterback","77","237","77","6","76","Virginia Beach","VA","USA","36.8529841","-75.9774183","51810"
"480493","29247","61","Georgia","SEC","Pittsburgh","2013","17","1","17","Jarvis Jones","Outside Linebacker","74","245","20","2","91","Columbus","GA","USA","32.4609764","-84.9877094","13215"
"504161","29202","99","LSU","SEC","San Francisco","2013","18","1","18","Eric Reid","Safety","73","213","41","4","87","Geismar","LA","USA","30.2043633","-91.0226013","22005"
"-1033321","29241","183","Syracuse","Big East","New York","2013","19","1","19","Justin Pugh","Offensive Tackle","77","307","22","5","91","Holland","PA","USA","40.1728871","-74.9926688","42017"
"-1028506","30262","2483","Oregon","Pac-12","Chicago","2013","20","1","20","Kyle Long","Offensive Guard","78","313","26","3","89","Charlottesville","VA","USA","38.029306","-78.4766781","51540"
"483387","29260","87","Notre Dame","FBS Independents","Cincinnati","2013","21","1","21","Tyler Eifert","Tight End","78","250","13","1","93","Ft. Wayne","IN","USA","41.0799898","-85.1386015","18003"
"482597","29254","264","Washington","Pac-12","Atlanta","2013","22","1","22","Desmond Trufant","Cornerback","72","190","33","3","88","Tacoma","WA","USA","47.2495798","-122.4398746","53053"
"-1009876","29257","57","Florida","SEC","Minnesota","2013","23","1","23","Sharrif Floyd","Defensive Tackle","75","297","5","2","95","Philadelphia","PA","USA","39.9527237","-75.1635262","42101"
"501100","30221","52","Florida State","ACC","Indianapolis","2013","24","1","24","Bjoern Werner","Defensive End","75","266","23","3","90","Berlin","","Germany","","",""
"480766","29986","52","Florida State","ACC","Minnesota","2013","25","1","25","Xavier Rhodes","Cornerback","74","210","40","4","87","Miami","FL","USA","25.7742658","-80.1936589","12086"
"380732","29289","26","UCLA","Pac-12","Green Bay","2013","26","1","26","Datone Jones","Defensive End","76","283","24","4","90","Compton","CA","USA","33.894927","-118.226624","06037"
"501689","30261","228","Clemson","ACC","Houston","2013","27","1","27","DeAndre Hopkins","Wide Receiver","73","214","47","6","86","Central","SC","USA","34.7257424","-82.7804999","45077"
"516348","29239","153","North Carolina","ACC","Denver","2013","28","1","28","Sylvester Williams","Defensive Tackle","75","313","18","4","92","Jefferson City","MO","USA","38.577359","-92.1724265","29051"
"532092","30260","2633","Tennessee","SEC","Minnesota","2013","29","1","29","Cordarrelle Patterson","Wide Receiver","74","216","29","3","89","Rock Hill","SC","USA","34.9248667","-81.0250784","45091"
"504007","29252","61","Georgia","SEC","Los Angeles","2013","30","1","30","Alec Ogletree","Inside Linebacker","75","242","19","1","92","Newnan","GA","USA","33.3806716","-84.7996573","13077"
"-1043878","30283","275","Wisconsin","Big Ten","Dallas","2013","31","1","31","Travis Frederick","Center","76","312","71","1","78","Sharon","WI","USA","42.5025165","-88.7289927","55127"
"501556","30222","57","Florida","SEC","Baltimore","2013","32","1","32","Matt Elam","Safety","70","208","27","2","89","Palm Beach Gardens","FL","USA","26.8418256","-80.13590694666684","12099"
"2469879","29352","2229","Florida International","Sun Belt","Jacksonville","2013","33","2","1","Johnathan Cyprien","Safety","72","217","37","3","88","","","","","",""
"501520","29238","2633","Tennessee","SEC","Tennessee","2013","34","2","2","Justin Hunter","Wide Receiver","76","196","25","2","90","Virginia Beach","VA","USA","36.8529841","-75.9774183","51810"
"482590","29190","24","Stanford","Pac-12","Philadelphia","2013","35","2","3","Zach Ertz","Tight End","77","249","35","2","88","Alamo","CA","USA","37.8502033","-122.032184","06013"
"512039","29485","344","Mississippi State","SEC","Detroit","2013","36","2","4","Darius Slay","Cornerback","72","192","64","9","79","Brunswick","GA","USA","31.1499528","-81.4914894","13127"
"500890","30234","153","North Carolina","ACC","Cincinnati","2013","37","2","5","Giovani Bernard","Running Back","68","202","93","6","73","Davie","FL","USA","26.075729","-80.28410897530864","12011"
"517633","29240","87","Notre Dame","FBS Independents","Los Angeles","2013","38","2","6","Manti Te'o","Inside Linebacker","73","241","21","2","91","Laie","HI","USA","21.647244399999998","-157.93069756074482","15003"
"488025","29965","277","West Virginia","Big 12","New York","2013","39","2","7","Geno Smith","Quarterback","74","218","28","1","89","Miami","FL","USA","25.7742658","-80.1936589","12086"
"2576771","29318","52","Florida State","ACC","San Francisco","2013","40","2","8","Cornellius (Tank) Carradine","Defensive End","76","276","31","5","89","","","","","",""
"500234","29964","30","USC","Pac-12","Buffalo","2013","41","2","9","Robert Woods","Wide Receiver","72","201","32","4","88","Carson ","CA","USA","33.8322043","-118.2517547","06037"
"-1011057","30314","52","Florida State","ACC","Las Vegas","2013","42","2","10","Menelik Watson","Offensive Tackle","77","310","30","6","89","Manchester","","United Kingdom","","",""
"483145","29962","344","Mississippi State","SEC","Tampa Bay","2013","43","2","11","Johnthan Banks","Cornerback","74","185","55","7","83","Maben","MS","USA","33.554293799999996","-89.08071261681248","28105"
"382047","29961","2509","Purdue","Big Ten","Carolina","2013","44","2","12","Kawann Short","Defensive Tackle","75","299","49","6","86","East Chicago","IN","USA","41.6397857","-87.4548466","18089"
"481964","30259","99","LSU","SEC","Arizona","2013","45","2","13","Kevin Minter","Inside Linebacker","72","246","46","3","86","Suwanee","GA","USA","34.0514898","-84.0712997","13135"
"379307","30381","2483","Oregon","Pac-12","Buffalo","2013","46","2","14","Kiko Alonso","Inside Linebacker","75","238","99","6","72","Los Gatos","CA","USA","37.226611","-121.9746797","06085"
"481181","30242","21","San Diego State","Mountain West","Dallas","2013","47","2","15","Gavin Escobar","Tight End","78","254","59","3","81","Rancho Santa Margarita","CA","USA","33.6408845","-117.6029341","06059"
"2515397","30218","127","Michigan State","Big Ten","Pittsburgh","2013","48","2","16","Le'veon Bell","Running Back","73","230","89","5","74","","","","","",""
"-1027181","29244","194","Ohio State","Big Ten","New York","2013","49","2","17","Johnathan Hankins","Defensive Tackle","75","320","68","9","78","Dearborn Heights","MI","USA","42.3369816","-83.2732627","26163"
"482711","30000","57","Florida","SEC","Chicago","2013","50","2","18","Jonathan Bostic","Inside Linebacker","73","245","92","5","73","Wellington","FL","USA","26.63799875","-80.25590780868578","12099"
"501149","29234","152","NC State","ACC","Washington","2013","51","2","19","David Amerson","Cornerback","73","205","108","15","70","Greensboro","NC","USA","36.0726355","-79.7919754","37081"
"-1032763","29225","2572","Southern Mississippi","Conference USA","New England","2013","52","2","20","Jamie Collins","Outside Linebacker","76","250","81","6","76","McCall Creek","MS","USA","31.5126719","-90.698711","28037"
"483240","29617","2567","SMU","Conference USA","Cincinnati","2013","53","2","21","Margus Hunt","Defensive End","80","277","42","5","87","Karksi-Nuia","","Estonia","","",""
"378361","30095","68","Boise State","Mountain West","Miami","2013","54","2","22","Jamar Taylor","Cornerback","71","192","45","5","86","San Diego","CA","USA","32.7174209","-117.1627714","06073"
"482477","29592","242","Rice","Conference USA","San Francisco","2013","55","2","23","Vance McDonald","Tight End","76","267","69","5","78","Winnie","TX","USA","29.8202205","-94.3840777","48071"
"377699","30379","2306","Kansas State","Big 12","Baltimore","2013","56","2","24","Arthur Brown","Outside Linebacker","72","241","48","3","86","Wichita","KS","USA","37.6922361","-97.3375448","20173"
"483193","29217","2579","South Carolina","SEC","Houston","2013","57","2","25","D.J. Swearinger","Safety","71","208","44","5","86","Greenwood","SC","USA","34.1954001","-82.1617883","45047"
"482389","29208","275","Wisconsin","Big Ten","Denver","2013","58","2","26","Montee Ball","Running Back","71","214","57","2","82","Wentzville","MO","USA","38.8244136","-90.8683119","29183"
"483949","29968","276","Marshall","Conference USA","New England","2013","59","2","27","Aaron Dobson","Wide Receiver","75","210","62","9","80","Dunbar","WV","USA","38.3606509","-81.7373485","54039"
"478473","30016","2545","Southeastern Louisiana","Southland","Atlanta","2013","60","2","28","Robert Alford","Cornerback","70","188","67","10","78","","","","","",""
"480263","30178","333","Alabama","SEC","Green Bay","2013","61","2","29","Eddie Lacy","Running Back","71","231","34","1","88","Geismar","LA","USA","30.2043633","-91.0226013","22005"
"480214","29273","245","Texas A&M","SEC","Seattle","2013","62","2","30","Christine Michael","Running Back","70","220","78","4","76","Beaumont","TX","USA","30.0860459","-94.1018461","48245"
"377964","30133","2132","Cincinnati","Big East","Kansas City","2013","63","3","1","Travis Kelce","Tight End","77","255","61","4","80","Cleveland Heights","OH","USA","41.5200518","-81.556235","39035"
"382320","30149","41","Connecticut","Big East","Jacksonville","2013","64","3","2","Dwayne Gratz","Cornerback","71","201","86","12","74","Piscataway","NJ","USA","40.5462553","-74.4660408","34023"
"-1016240","29192","96","Kentucky","SEC","Detroit","2013","65","3","3","Larry Warford","Offensive Guard","75","332","54","4","83","Richmond","KY","USA","37.7478572","-84.2946539","21151"
"382327","29310","41","Connecticut","Big East","Las Vegas","2013","66","3","4","Sio Moore","Outside Linebacker","73","245","53","4","84","Apex","NC","USA","35.7325352","-78.8505516","37183"
"-1016636","29959","99","LSU","SEC","Philadelphia","2013","67","3","5","Bennie Logan","Defensive Tackle","74","309","84","10","75","Coushatta","LA","USA","32.0148834","-93.3421165","22081"
"481177","29309","21","San Diego State","Mountain West","Cleveland","2013","68","3","6","Leon McFadden","Cornerback","70","193","156","21","58","Inglewood","CA","USA","33.9562003","-118.353132","06037"
"2516216","29205","99","LSU","SEC","Arizona","2013","69","3","7","Tyrann Mathieu","Cornerback","69","186","63","8","80","","","","","",""
"382312","29199","41","Connecticut","Big East","Tennessee","2013","70","3","8","Blidi Wreh-Wilson","Cornerback","73","195","51","6","85","Edinboro","PA","USA","41.8742225","-80.1317236","42049"
"480492","29258","30","USC","Pac-12","Los Angeles","2013","71","3","9","T.J. McDonald","Safety","75","219","185","14","53","Fresno","CA","USA","36.7295295","-119.70886126075588","06019"
"-1015859","30244","2309","Kent State","Mid-American","New York","2013","72","3","10","Brian Winters","Offensive Guard","76","318","80","5","76","Hudson","OH","USA","41.240056","-81.440667","39153"
"381967","29224","152","NC State","ACC","Tampa Bay","2013","73","3","11","Mike Glennon","Quarterback","79","225","74","5","77","Centreville","VA","USA","38.8403909","-77.4288769","51059"
"379892","29277","239","Baylor","Big 12","Dallas","2013","74","3","12","Terrance Williams","Wide Receiver","74","208","60","8","81","Dallas","TX","USA","32.7762719","-96.7968559","48113"
"2511842","30079","2029","Arkansas-Pine Bluff","SWAC","New Orleans","2013","75","3","13","Terron Armstead","Offensive Tackle","77","306","52","7","85","","","","","",""
"501550","29250","25","California","Pac-12","Los Angeles","2013","76","3","14","Keenan Allen","Wide Receiver","74","206","38","5","88","Greensboro","NC","USA","36.0726355","-79.7919754","37081"
"-1034445","30349","2633","Tennessee","SEC","Miami","2013","77","3","15","Dallas Thomas","Offensive Guard","78","306","94","6","73","Baton Rouge","LA","USA","30.4459596","-91.18738","22033"
"481791","29305","251","Texas","Big 12","Buffalo","2013","78","3","16","Marquise Goodwin","Wide Receiver","69","183","115","12","69","Garland","TX","USA","32.912624","-96.6388833","48113"
"482558","29269","204","Oregon State","Pac-12","Pittsburgh","2013","79","3","17","Markus Wheaton","Wide Receiver","71","189","88","11","74","Chandler","AZ","USA","33.3062223","-111.8413317","04013"
"2468876","30249","290","Georgia Southern","Southern","Dallas","2013","80","3","18","J. J. Wilcox","Safety","72","213","104","8","71","","","","","",""
"500563","30227","245","Texas A&M","SEC","New York","2013","81","3","19","Damontre Moore","Defensive End","77","250","56","7","82","Rowlett","TX","USA","32.9029017","-96.56388","48113"
"-1011762","29236","61","Georgia","SEC","New Orleans","2013","82","3","20","John Jenkins","Defensive Tackle","76","346","39","6","88","Meriden","CT","USA","41.5381535","-72.8070435","09009"
"483131","30247","164","Rutgers","Big East","New England","2013","83","3","21","Logan Ryan","Cornerback","71","191","101","13","72","Berlin","NJ","USA","39.7912262","-74.9290536","34007"
"482774","29255","61","Georgia","SEC","Cincinnati","2013","84","3","22","Shawn Williams","Safety","72","213","190","15","52","Damascus","GA","USA","34.5500858","-84.9357761","13129"
"480262","30284","57","Florida","SEC","Washington","2013","85","3","23","Jordan Reed","Tight End","75","236","116","6","69","New London","CT","USA","41.3556187","-72.0997804","09011"
"-1013663","29395","356","Illinois","Big Ten","Indianapolis","2013","86","3","24","Hugh Thornton","Offensive Guard","75","320","113","7","69","Oberlin","OH","USA","41.2939386","-82.2173786","39093"
"488962","29983","213","Penn State","Big Ten","Seattle","2013","87","3","25","Jordan Hill","Defensive Tackle","73","303","133","12","65","Steelton","PA","USA","40.2353679","-76.8413613","42043"
"-1003740","29248","2","Auburn","SEC","San Francisco","2013","88","3","26","Corey Lemonier","Defensive End","75","255","114","14","69","Hialeah","FL","USA","25.8575963","-80.2781057","12086"
"-1024880","29249","153","North Carolina","ACC","Houston","2013","89","3","27","Brennan Williams","Offensive Tackle","78","318","122","9","68","West Roxbury","MA","USA","42.2792649","-71.1494972","25025"
"482875","29628","58","South Florida","Big East","Denver","2013","90","3","28","Kayvon Webster","Cornerback","71","195","112","16","69","Opa Locka","FL","USA","25.896733849999997","-80.25949640850294","12086"
"483118","29598","164","Rutgers","Big East","New England","2013","91","3","29","Duron Harmon","Safety","72","198","","26","35","Magnolia","DE","USA","39.0715528","-75.4757444","10001"
"487983","30171","277","West Virginia","Big 12","Los Angeles","2013","92","3","30","Stedman Bailey","Wide Receiver","70","193","75","10","77","Miramar","FL","USA","25.975911449999998","-80.33472128115224","12011"
"512807","29722","328","Utah State","Western Athletic","Miami","2013","93","3","31","Will Davis","Cornerback","71","186","189","26","52","Spokane","WA","USA","47.6579425","-117.4212265","53063"
"2184059","29493","2403","Missouri Southern State","","Baltimore","2013","94","3","32","Brandon Williams","Defensive Tackle","73","335","65","8","79","","","","","",""
"-1016639","29246","99","LSU","SEC","Houston","2013","95","3","33","Sam Montgomery","Defensive End","75","262","96","11","72","Greenwood","SC","USA","34.1954001","-82.1617883","45047"
"482676","29971","8","Arkansas","SEC","Kansas City","2013","96","3","34","Knile Davis","Running Back","71","227","215","18","49","Missouri City","TX","USA","29.6185669","-95.5377215","48157"
"381377","29286","142","Missouri","SEC","Tennessee","2013","97","3","35","Zaviar Gooden","Outside Linebacker","74","234","134","10","64","Pflugerville","TX","USA","30.4393696","-97.6200043","48453"
"480322","29232","30","USC","Pac-12","Philadelphia","2013","98","4","1","Matt Barkley","Quarterback","75","227","43","3","87","Newport Beach","CA","USA","33.6170092","-117.9294401","06059"
"482656","29207","333","Alabama","SEC","Kansas City","2013","99","4","2","Nico Johnson","Inside Linebacker","74","248","159","8","58","Andalusia","AL","USA","31.3085039","-86.4832033","01039"
"-1013659","30243","356","Illinois","Big Ten","Tampa Bay","2013","100","4","3","Akeem Spence","Defensive Tackle","73","307","87","11","74","Fort Walton Beach","FL","USA","30.4057552","-86.618842","12091"
"504290","30367","2579","South Carolina","SEC","Jacksonville","2013","101","4","4","Ace Sanders","Wide Receiver","67","173","171","20","56","Bradenton","FL","USA","27.4989278","-82.5748194","12081"
"481315","29977","2628","TCU","Big 12","New England","2013","102","4","5","Josh Boyce","Wide Receiver","71","206","130","15","66","Copperas Cove","TX","USA","31.124062","-97.9030785","48099"
"-1034838","29189","251","Texas","Big 12","Arizona","2013","103","4","6","Alex Okafor","Defensive End","77","264","70","8","77","Pflugerville","TX","USA","30.4393696","-97.6200043","48453"
"482722","29274","57","Florida","SEC","Miami","2013","104","4","7","Jelani Jenkins","Outside Linebacker","73","243","154","13","59","Olney","MD","USA","39.1532123","-77.0668408","24031"
"480554","30024","2440","Nevada","Mountain West","Buffalo","2013","105","4","8","Duke Williams","Safety","71","203","128","10","66","Reno","NV","USA","39.5261206","-119.8126581","32031"
"481715","29194","127","Michigan State","Big Ten","Miami","2013","106","4","9","Dion Sims","Tight End","77","262","146","7","61","Detroit","MI","USA","42.3315509","-83.0466403","26163"
"482505","30374","25","California","Pac-12","Tennessee","2013","107","4","10","Brian Schwenke","Center","75","314","73","2","77","Oceanside","CA","USA","33.1958696","-117.3794834","06073"
"3016933","29732","2673","Valdosta State","","Carolina","2013","108","4","11","Edmund Kugbila","Offensive Guard","76","317","192","14","52","","","","","",""
"-1007885","30269","38","Colorado","Pac-12","Green Bay","2013","109","4","12","David Bakhtiari","Offensive Tackle","76","299","100","8","72","Burlingame","CA","USA","37.5841026","-122.3660825","06081"
"382584","29300","183","Syracuse","Big East","New York","2013","110","4","13","Ryan Nassib","Quarterback","74","227","36","2","88","West Chester","PA","USA","39.9597213","-75.6059638","42029"
"483226","29647","183","Syracuse","Big East","Pittsburgh","2013","111","4","14","Shamarko Thomas","Safety","69","213","79","6","76","Virginia Beach","VA","USA","36.8529841","-75.9774183","51810"
"382642","29967","8","Arkansas","SEC","Las Vegas","2013","112","4","15","Tyler Wilson","Quarterback","74","215","72","4","78","Greenwood","AR","USA","35.2156489","-94.2557663","05131"
"-1000967","30246","333","Alabama","SEC","Los Angeles","2013","113","4","16","Barrett Jones","Center","77","306","98","3","72","Memphis","TN","USA","35.1490215","-90.0516285","47157"
"477300","29316","2729","William & Mary","CAA","Dallas","2013","114","4","17","B.W. Webb","Cornerback","70","184","82","11","75","","","","","",""
"377845","29956","201","Oklahoma","Big 12","Pittsburgh","2013","115","4","18","Landry Jones","Quarterback","76","225","90","8","74","Artesia","NM","USA","32.8423345","-104.4032963","35015"
"2310665","30017","256","James Madison","CAA","Arizona","2013","116","4","19","Earl Watford","Offensive Guard","75","300","160","10","58","","","","","",""
"382170","30163","164","Rutgers","Big East","Chicago","2013","117","4","20","Khaseem Greene","Outside Linebacker","73","241","66","5","79","Elizabeth","NJ","USA","40.6639916","-74.2107006","34039"
"483062","29296","245","Texas A&M","SEC","Cincinnati","2013","118","4","21","Sean Porter","Outside Linebacker","73","229","149","12","60","Schertz","TX","USA","29.5641617","-98.2695702","48187"
"382993","30248","278","Fresno State","Mountain West","Washington","2013","119","4","22","Phillip Thomas","Safety","73","208","97","7","72","Bakersfield","CA","USA","35.3738712","-119.0194639","06029"
"481918","29220","213","Penn State","Big Ten","Minnesota","2013","120","4","23","Gerald Hodges","Outside Linebacker","73","243","182","14","54","Paulsboro","NJ","USA","39.830391","-75.2404608","34015"
"-1039016","30159","30","USC","Pac-12","Indianapolis","2013","121","4","24","Khaled Holmes","Center","75","302","169","4","56","Santa Ana ","CA","USA","33.7494951","-117.8732213","06059"
"2470504","30263","172","Cornell","Ivy","Green Bay","2013","122","4","25","J.C. Tretter","Offensive Guard","76","307","181","13","54","","","","","",""
"487950","30014","2306","Kansas State","Big 12","Seattle","2013","123","4","26","Chris Harper","Wide Receiver","73","229","147","16","61","Wichita","KS","USA","37.6922361","-97.3375448","20173"
"-1008571","30150","41","Connecticut","Big East","Houston","2013","124","4","27","Trevardo Williams","Defensive End","73","241","143","18","61","Bridgeport","CT","USA","41.1670412","-73.2048348","09001"
"380712","29292","26","UCLA","Pac-12","Green Bay","2013","125","4","28","Johnathan Franklin","Running Back","70","205","102","7","71","Los Angeles","CA","USA","34.0536909","-118.2427666","06037"
"-1020798","29958","127","Michigan State","Big Ten","Tampa Bay","2013","126","4","29","William Gholston","Defensive End","78","281","95","10","73","Detroit","MI","USA","42.3315509","-83.0466403","26163"
"-1007408","29191","228","Clemson","ACC","Atlanta","2013","127","4","30","Malliciah Goodman","Defensive End","76","276","168","20","56","Florence","SC","USA","34.1984435","-79.7671658","45041"
"512774","30207","2348","Louisiana Tech","Western Athletic","San Francisco","2013","128","4","31","Quinton Patton","Wide Receiver","72","204","58","7","82","La Vergne","TN","USA","36.0156178","-86.5819394","47149"
"-1027195","29206","194","Ohio State","Big Ten","Baltimore","2013","129","4","32","John Simon","Defensive End","74","257","85","9","74","Youngstown","OH","USA","41.1035786","-80.6520161","39099"
"2470552","30302","108","Harvard","Ivy","Baltimore","2013","130","4","33","Kyle Juszczyk","Fullback","73","248","","4","33","","","","","",""
"501517","29245","2579","South Carolina","SEC","San Francisco","2013","131","4","34","Marcus Lattimore","Running Back","71","221","120","9","68","Duncan","SC","USA","34.9378962","-82.1451096","45083"
"382777","30197","2579","South Carolina","SEC","Detroit","2013","132","4","35","Devin Taylor","Defensive End","79","266","124","16","67","Beaufort","SC","USA","32.4315813","-80.6698286","45013"
"482565","29201","24","Stanford","Pac-12","Atlanta","2013","133","4","36","Levine Toilolo","Tight End","80","260","155","9","59","La Mesa","CA","USA","32.7678288","-117.0230839","06073"
"382676","30184","61","Georgia","SEC","Kansas City","2013","134","5","1","Sanders Commings","Cornerback","72","216","123","17","67","Augusta","GA","USA","33.4709714","-81.9748429","13245"
"480237","29990","130","Michigan","Big Ten","Jacksonville","2013","135","5","2","Denard Robinson","Wide Receiver","71","199","184","22","54","Deerfield Beach","FL","USA","26.318342","-80.0996306","12011"
"381571","29517","152","NC State","ACC","Philadelphia","2013","136","5","3","Earl Wolff","Safety","71","209","135","11","63","Raeford","NC","USA","34.9809996","-79.2241998","37093"
"-1000983","29193","333","Alabama","SEC","Seattle","2013","137","5","4","Jesse Williams","Defensive Tackle","75","323","50","7","85","Brisbane","","Australia","","",""
"504169","29271","99","LSU","SEC","Seattle","2013","138","5","5","Tharold Simon","Cornerback","74","202","","33","40","Eunice","LA","USA","30.4943669","-92.4176324","22097"
"2469265","29226","2630","UT Martin","OVC","Indianapolis","2013","139","5","6","Montori Hughes","Defensive Tackle","76","329","144","14","61","","","","","",""
"482574","29221","24","Stanford","Pac-12","Arizona","2013","140","5","7","Stepfan Taylor","Running Back","69","214","170","12","56","Mansfield","TX","USA","32.5631924","-97.1416768","48439"
"-1041102","30375","258","Virginia","ACC","New York","2013","141","5","8","Oday Aboushi","Offensive Guard","77","308","140","9","62","Staten Island","NY","USA","40.564209","-74.12530461995391","36085"
"378559","29210","99","LSU","SEC","Tennessee","2013","142","5","9","Lavar Edwards","Defensive End","76","277","173","21","55","Gretna","LA","USA","29.9146493","-90.0539604","22051"
"482953","30134","228","Clemson","ACC","Buffalo","2013","143","5","10","Jonathan Meeks","Safety","73","211","","36","30","Rock Hill","SC","USA","34.9248667","-81.0250784","45091"
"501915","29261","201","Oklahoma","Big 12","New Orleans","2013","144","5","11","Kenny Stills","Wide Receiver","73","194","178","21","55","Encinitas","CA","USA","33.0369867","-117.2919818","06073"
"482487","30330","25","California","Pac-12","Los Angeles","2013","145","5","12","Steve Williams","Cornerback","69","181","142","18","61","Dallas","TX","USA","32.7762719","-96.7968559","48113"
"-1043218","29766","98","Western Kentucky","Sun Belt","Denver","2013","146","5","13","Quanterus Smith","Defensive End","77","250","127","17","66","Loganville","GA","USA","33.8389977","-83.9007382","13297"
"383095","30382","2084","Buffalo","Mid-American","Tampa Bay","2013","147","5","14","Steven Means","Outside Linebacker","75","251","","24","33","Buffalo","NY","USA","42.8867166","-78.8783922","36029"
"480706","30033","66","Iowa State","Big 12","Carolina","2013","148","5","15","A.J. Klein","Inside Linebacker","73","250","220","10","48","Kimberly","WI","USA","44.2717086","-88.3400807","55087"
"480222","29978","2390","Miami","ACC","Los Angeles","2013","149","5","16","Brandon McGee","Cornerback","71","193","200","27","50","Plantation","FL","USA","26.1265258","-80.25786123765101","12011"
"480232","29256","356","Illinois","Big Ten","Pittsburgh","2013","150","5","17","Terry Hawthorne","Cornerback","72","195","235","31","45","East St. Louis","IL","USA","38.6244952","-90.1509429","17163"
"501595","29299","197","Oklahoma State","Big 12","Dallas","2013","151","5","18","Joseph Randle","Running Back","72","204","183","13","54","Wichita","KS","USA","37.6922361","-97.3375448","20173"
"2309710","29593","257","Richmond","CAA","New York","2013","152","5","19","Cooper Taylor","Safety","76","229","","25","36","","","","","",""
"-1033673","30342","2628","TCU","Big 12","Atlanta","2013","153","5","20","Stansly Maponga","Defensive End","74","256","157","19","58","Carrolton","TX","USA","37.7985383","-121.070216","06077"
"480764","30236","52","Florida State","ACC","Washington","2013","154","5","21","Chris Thompson","Running Back","67","192","","32","30","Greenville","FL","USA","30.4694812","-83.6299688","12079"
"380723","30041","26","UCLA","Pac-12","Minnesota","2013","155","5","22","Jeff Locke","Punter","73","209","260","4","41","Glendale","AZ","USA","33.5386858","-112.1859941","04013"
"-1015119","29283","2305","Kansas","Big 12","Cincinnati","2013","156","5","23","Tanner Hawkinson","Offensive Tackle","77","298","197","16","51","McPherson","KS","USA","38.3708415","-97.6642087","20113"
"-1000959","29325","333","Alabama","SEC","San Francisco","2013","157","5","24","Quinton Dial","Defensive End","77","318","","29","35","Pinson","AL","USA","33.706205","-86.67007895992774","01073"
"383454","29591","242","Rice","Conference USA","Seattle","2013","158","5","25","Luke Willson","Tight End","77","252","","21","31","LaSalle","ON","Canada","","",""
"480441","29198","2294","Iowa","Big Ten","Green Bay","2013","159","5","26","Micah Hyde","Cornerback","72","197","172","24","55","Fostoria","OH","USA","41.156998","-83.4168702","39147"
"2469274","29740","238","Vanderbilt","SEC","Los Angeles","2013","160","5","27","Zachary Stacy","Running Back","68","216","207","17","50","","","","","",""
"378226","30160","61","Georgia","SEC","Denver","2013","161","5","28","Tavarres King","Wide Receiver","72","189","151","17","60","Mount Airy","GA","USA","34.5187106","-83.5007265","13137"
"-1011042","29957","52","Florida State","ACC","Washington","2013","162","5","29","Brandon Jenkins","Outside Linebacker","75","251","106","7","71","Tallahassee","FL","USA","30.4380832","-84.2809332","12073"
"-1017107","29436","2348","Louisiana Tech","Western Athletic","Chicago","2013","163","5","30","Jordan Mills","Offensive Tackle","77","316","164","14","57","Napoleonville","LA","USA","29.9404803","-91.0248214","22007"
"480255","29358","57","Florida","SEC","Miami","2013","164","5","31","Mike Gillislee","Running Back","71","208","117","8","69","DeLand","FL","USA","29.0283213","-81.3031098","12127"
"381882","30378","2026","Appalachian State","Southern","Detroit","2013","165","5","32","Sam Martin","Punter","","205","","","","","","","","",""
"378619","29307","57","Florida","SEC","Miami","2013","166","5","33","Caleb Sturgis","Place Kicker","70","188","246","2","44","St. Augustine","FL","USA","29.8946952","-81.3145395","12109"
"-1022117","29314","344","Mississippi State","SEC","Green Bay","2013","167","5","34","Josh Boyd","Defensive Tackle","75","310","237","19","45","Philadelphia","MS","USA","32.7703841","-89.1153488","28099"
"2310433","29195","275","Wisconsin","Big Ten","Baltimore","2013","168","5","35","Ricky Wagner","Offensive Tackle","78","308","141","13","62","","","","","",""
"2468734","29354","57","Florida","SEC","Jacksonville","2013","169","6","1","Joshua Evans","Safety","73","207","236","20","45","","","","","",""
"3020735","30119","2858","California (PA)","","Kansas City","2013","170","6","2","Eric Kush","Center","76","304","","17","30","","","","","",""
"501213","29750","259","Virginia Tech","ACC","Detroit","2013","171","6","3","Corey Fuller","Wide Receiver","74","204","","36","37","Baltimore","MD","USA","39.2908816","-76.610759","24510"
"480650","30144","38","Colorado","Pac-12","Las Vegas","2013","172","6","4","Nick Kasa","Tight End","78","269","233","14","46","Thornton","CO","USA","39.8695516","-104.9851819","08001"
"-1041461","29746","259","Virginia Tech","ACC","Denver","2013","173","6","5","Vinston Painter","Offensive Tackle","76","306","204","17","50","Norfolk","VA","USA","36.8462923","-76.2929252","51710"
"483069","30198","245","Texas A&M","SEC","Arizona","2013","174","6","6","Ryan Swope","Wide Receiver","72","205","126","14","67","Austin","TX","USA","30.2711286","-97.7436995","48453"
"2313911","30011","87","Notre Dame","FBS Independents","Cleveland","2013","175","6","7","Jamoris Slaughter","Safety","72","195","230","19","46","","","","","",""
"-1031475","30026","23","San José State","Western Athletic","Houston","2013","176","6","8","David Quessenberry","Offensive Tackle","77","302","125","10","67","Carlsbad","CA","USA","33.1580933","-117.3505966","06073"
"480761","30194","52","Florida State","ACC","Buffalo","2013","177","6","9","Dustin Hopkins","Place Kicker","74","193","177","1","55","Houston","TX","USA","29.7589382","-95.3676974","48201"
"-1020477","30265","130","Michigan","Big Ten","New York","2013","178","6","10","William Campbell","Offensive Guard","","318","","","","Detroit","MI","USA","42.3315509","-83.0466403","26163"
"2469903","29351","2229","Florida International","Sun Belt","Los Angeles","2013","179","6","11","Tourek Williams","Defensive End","75","260","225","24","47","","","","","",""
"380906","30270","52","Florida State","ACC","San Francisco","2013","180","6","12","Nick Moody","Outside Linebacker","73","236","250","18","43","Wyncote","PA","USA","40.0945549","-75.1487863","42091"
"383847","29699","2116","UCF","Conference USA","Las Vegas","2013","181","6","13","Latavius Murray","Running Back","75","224","","45","30","Nedrow","NY","USA","42.9771605","-76.14177812436992","36067"
"379309","30186","2483","Oregon","Pac-12","Carolina","2013","182","6","14","Kenjon Barner","Running Back","69","196","193","15","52","Riverside","CA","USA","33.9533546","-117.3961623","06065"
"","30346","2627","Tarleton State","","New Orleans","2013","183","6","15","Rufus Johnson","Defensive End","77","266","","55","30","","","","","",""
"379316","29665","2633","Tennessee","SEC","Las Vegas","2013","184","6","16","Mychal Rivera","Tight End","75","242","239","15","45","Valencia","CA","USA","34.1466768","-117.2725427","06071"
"483185","30285","2579","South Carolina","SEC","Dallas","2013","185","6","17","DeVonte Holloman","Outside Linebacker","73","243","111","8","70","Charlotte","NC","USA","35.2272","-80.843083","37119"
"2477972","29576","213","Penn State","Big Ten","Pittsburgh","2013","186","6","18","Justin Brown","Wide Receiver","75","207","","69","30","","","","","",""
"381445","29259","228","Clemson","ACC","Arizona","2013","187","6","19","Andre Ellington","Running Back","69","199","76","3","77","Moncks Corner","SC","USA","33.1960027","-80.0131374","45015"
"-1011780","30325","61","Georgia","SEC","Chicago","2013","188","6","20","Cornelius Washington","Defensive End","76","265","105","12","71","Hephzibah","GA","USA","33.3140311","-82.0967857","13245"
"480873","29464","2390","Miami","ACC","Tampa Bay","2013","189","6","21","Mike James","Running Back","62","223","","31","30","Hanies City","FL","USA","28.3216922","-82.611687","12101"
"481556","29262","158","Nebraska","Big Ten","Cincinnati","2013","190","6","22","Rex Burkhead","Running Back","70","214","","25","36","Plano","TX","USA","33.0136764","-96.6925096","48085"
"382686","30176","61","Georgia","SEC","Washington","2013","191","6","23","Bacarri Rambo","Safety","73","211","110","9","70","Donalsonville","GA","USA","31.0404625","-84.8790911","13253"
"378484","29988","2483","Oregon","Pac-12","Indianapolis","2013","192","6","24","John Boyett","Safety","70","204","","27","31","Napa","CA","USA","38.2971367","-122.2855293","06055"
"2313332","30229","2287","Illinois State","MVFC","Green Bay","2013","193","6","25","Nathan Palmer","Outside Linebacker","74","233","","38","30","","","","","",""
"504167","29985","99","LSU","SEC","Seattle","2013","194","6","26","Spencer Ware","Running Back","70","228","222","19","48","Cincinnati","OH","USA","39.1014537","-84.5124602","39061"
"485553","30371","55","Jacksonville State","OVC","Houston","2013","195","6","27","Alan Bonner","Wide Receiver","70","193","188","23","53","","","","","",""
"-1038346","29702","26","UCLA","Pac-12","Minnesota","2013","196","6","28","Jeff Baca","Offensive Guard","75","302","132","8","65","Mission Viego","CA","USA","","",""
"482678","30168","8","Arkansas","SEC","Cincinnati","2013","197","6","29","Cobi Hamilton","Wide Receiver","74","212","166","19","57","Texarkana","TX","USA","33.44628645","-94.07638067493534","48037"
"2465522","30101","189","Bowling Green","Mid-American","Houston","2013","198","6","30","Christopher Jones","Defensive Tackle","74","302","","23","34","","","","","",""
"483393","30196","87","Notre Dame","FBS Independents","Detroit","2013","199","6","31","Theo Riddick","Running Back","","201","","","","Manville","NJ","USA","40.5409367","-74.587657","34035"
"-1026465","29213","87","Notre Dame","FBS Independents","Baltimore","2013","200","6","32","Kapron Lewis-Moore","Defensive End","76","298","241","25","44","Weatherford","TX","USA","32.7589648","-97.7970748","48367"
"382341","29306","41","Connecticut","Big East","Houston","2013","201","6","33","Ryan Griffin","Tight End","78","247","","34","30","Londonderry","NH","USA","42.8650869","-71.3739532","33015"
"383193","29503","2440","Nevada","Mountain West","Tennessee","2013","202","6","34","Khalid Wooten","Cornerback","71","211","","34","37","Rialto","CA","USA","34.1064001","-117.3703235","06071"
"","30736","2570","Colorado State-Pueblo","","Baltimore","2013","203","6","35","Ryan Jensen","Offensive Guard","76","306","163","11","57","","","","","",""
"481498","30034","2306","Kansas State","Big 12","Kansas City","2013","204","6","36","Braden Wilson","Fullback","76","251","","6","31","Smith Center","KS","USA","39.779179","-98.785075","20183"
"-1027553","29546","201","Oklahoma","Big 12","Las Vegas","2013","205","6","37","Stacy McGee","Defensive Tackle","75","308","256","20","41","Muskogee","OK","USA","35.7478769","-95.3696909","40101"
"377669","30190","52","Florida State","ACC","Pittsburgh","2013","206","6","38","Vince Williams","Inside Linebacker","73","247","","12","39","Davenport","FL","USA","28.1614046","-81.6017417","12105"
"2315246","30343","163","Princeton","Ivy","Kansas City","2013","207","7","1","Mike Catapano","Defensive End","75","270","118","15","68","","","","","",""
"512783","30408","166","New Mexico State","Western Athletic","Jacksonville","2013","208","7","2","Jeremy Harris","Cornerback","74","181","","116","30","Dorsey","CA","USA","38.9736574","-90.0014932","17119"
"379396","29614","21","San Diego State","Mountain West","Las Vegas","2013","209","7","3","Brice Butler","Wide Receiver","75","199","","127","30","Norcross","GA","USA","33.9412127","-84.2135309","13135"
"2473099","30049","2026","Appalachian State","Southern","Jacksonville","2013","210","7","4","Demetrius McCray","Cornerback","73","187","240","32","44","","","","","",""
"382616","29219","333","Alabama","SEC","Detroit","2013","211","7","5","Michael Williams","Tight End","78","269","","19","35","Reform","AL","USA","33.378451","-88.0153008","01107"
"503046","29979","254","Utah","Pac-12","Philadelphia","2013","212","7","6","Joe Kruger","Defensive End","78","269","210","23","49","Orem","UT","USA","40.2971825","-111.694943","49049"
"377894","30189","213","Penn State","Big Ten","Minnesota","2013","213","7","7","Michael Mauti","Inside Linebacker","74","243","203","9","50","Mandeville","LA","USA","30.3582305","-90.0657477","22103"
"480628","29211","153","North Carolina","ACC","Minnesota","2013","214","7","8","Travis Bond","Offensive Guard","78","329","251","18","42","Windsor","NC","USA","35.9984925","-76.9460641","37015"
"481654","30019","154","Wake Forest","ACC","New York","2013","215","7","9","Tommy Bohanon","Fullback","73","246","257","1","41","North Fort Myers","FL","USA","26.6728666","-81.8840848","12071"
"","29844","125","Grand Valley State","","Green Bay","2013","216","7","10","Charles Johnson","Wide Receiver","74","209","199","25","51","","","","","",""
"3022888","29821","2191","East Central","","Cleveland","2013","217","7","11","Armonty Bryant","Defensive End","76","263","201","22","50","","","","","",""
"482550","29263","204","Oregon State","Pac-12","Philadelphia","2013","218","7","12","Jordan Poyer","Cornerback","72","191","107","14","71","Astoria","OR","USA","46.187885","-123.831256","41007"
"382162","29323","164","Rutgers","Big East","Arizona","2013","219","7","13","D.C. Jefferson","Tight End","78","255","253","16","42","Winter Haven","FL","USA","28.0222435","-81.7328568","12105"
"-1040770","29736","238","Vanderbilt","SEC","Seattle","2013","220","7","14","Ryan Seymour","Offensive Guard","76","297","","19","36","Kingsland","GA","USA","30.7999563","-81.6898261","13039"
"501337","29288","253","Southern Utah","Big Sky","Los Angeles","2013","221","7","15","Brad Sorensen","Quarterback","77","229","","17","30","","","","","",""
"382629","30188","8","Arkansas","SEC","Buffalo","2013","222","7","16","Chris Gragg","Tight End","75","244","150","8","60","Warren","AR","USA","33.6126086","-92.0645831","05011"
"2317118","29606","2535","Samford","Southern","Pittsburgh","2013","223","7","17","Nicholas Williams","Defensive Tackle","77","309","137","13","62","","","","","",""
"377686","29456","120","Maryland","ACC","Green Bay","2013","224","7","18","Kevin Dorsey","Wide Receiver","73","211","","129","30","Forestville","MD","USA","38.8451131","-76.8749722","24033"
"-1026833","29538","195","Ohio","Mid-American","New York","2013","225","7","19","Eric Herman","Offensive Guard","76","320","","21","34","Oregon","OH","USA","41.6436603","-83.4868768","39095"
"480434","29200","356","Illinois","Big Ten","New England","2013","226","7","20","Michael Buchanan","Defensive End","77","255","109","13","70","Homewood","IL","USA","41.5573283","-87.6654739","17031"
"","30350","2123","Chadron State","","Cleveland","2013","227","7","21","Garrett Gilkey","Offensive Guard","78","318","196","15","51","","","","","",""
"503841","30267","164","Rutgers","Big East","Washington","2013","228","7","22","Jawan Jamison","Running Back","67","203","198","16","51","Stark","FL","USA","30.2484776","-81.7035086","12031"
"380916","29187","52","Florida State","ACC","Minnesota","2013","229","7","23","Everett Dawkins","Defensive Tackle","74","292","191","17","52","Spartanburg","SC","USA","34.9498007","-81.9320157","45083"
"505058","29724","328","Utah State","Western Athletic","Indianapolis","2013","230","7","24","Kerwynn Williams","Running Back","68","195","165","11","57","Las Vegas","NV","USA","36.1672559","-115.1485163","32003"
"3021052","30361","2264","Harding","","Seattle","2013","231","7","25","Ty Powell","Outside Linebacker","74","249","145","11","61","","","","","",""
"2465466","29631","58","South Florida","Big East","Green Bay","2013","232","7","26","Samuel Barrington","Outside Linebacker","73","246","252","19","42","","","","","",""
"2521991","29494","137","Missouri Western","","Las Vegas","2013","233","7","27","David Bass","Defensive End","76","262","","27","39","","","","","",""
"385212","29975","193","Miami (OH)","Mid-American","Denver","2013","234","7","28","Zac Dysert","Quarterback","75","231","83","7","75","Ada","OH","USA","40.7694969","-83.8227149","39065"
"483111","29600","164","Rutgers","Big East","New England","2013","235","7","29","Steve Beauharnais","Inside Linebacker","73","240","138","7","62","Saddle Brook","NJ","USA","40.898988","-74.0926418","34003"
"504845","29253","265","Washington State","Pac-12","Chicago","2013","236","7","30","Marquess Wilson","Wide Receiver","75","194","208","26","50","Tulare","CA","USA","36.2077351","-119.3473421","06107"
"382201","29634","58","South Florida","Big East","San Francisco","2013","237","7","31","B.J. Daniels","Quarterback","","216","","","","Tallahassee","FL","USA","30.4380832","-84.2809332","12073"
"480273","29188","2210","Elon","Southern","Baltimore","2013","238","7","32","Aaron Mellette","Wide Receiver","74","217","161","18","58","","","","","",""
"-1027552","29543","201","Oklahoma","Big 12","Philadelphia","2013","239","7","33","David King","Defensive End","77","281","","35","30","Houston","TX","USA","29.7589382","-95.3676974","48201"
"487795","29319","194","Ohio State","Big Ten","Cincinnati","2013","240","7","34","Reid Fragel","Offensive Tackle","80","308","136","12","63","Grosse Pointe Farms","MI","USA","42.4092038","-82.8918587","26163"
"2310736","29508","160","New Hampshire","CAA","Seattle","2013","241","7","35","Jared Smith","Defensive Tackle","75","302","202","18","50","","","","","",""
"","29558","196","Northeastern State","","Seattle","2013","242","7","36","Michael Bowie","Offensive Tackle","77","330","","90","30","","","","","",""
"488084","29697","2116","UCF","Conference USA","Atlanta","2013","243","7","37","Kemal Ishmael","Safety","71","201","","62","30","Miami","FL","USA","25.7742658","-80.1936589","12086"
"483392","29532","87","Notre Dame","FBS Independents","Atlanta","2013","244","7","38","Zeke Motta","Safety","74","213","174","13","55","Vero Beach","FL","USA","27.6387163","-80.3975399","12061"
"2477038","29362","50","Florida A&M","MEAC","Detroit","2013","245","7","39","Brandon Hepburn","Inside Linebacker","75","240","","14","37","","","","","",""
"380931","29408","66","Iowa State","Big 12","San Francisco","2013","246","7","40","Carter Bykowski","Offensive Tackle","79","303","","97","30","Eden Prairie","MN","USA","44.8546856","-93.470786","27053"
"380696","30010","25","California","Pac-12","Baltimore","2013","247","7","41","Marc Anthony","Cornerback","71","196","152","20","59","Chandler","AZ","USA","33.3062223","-111.8413317","04013"
"514535","30166","158","Nebraska","Big Ten","Tennessee","2013","248","7","42","Daimion Stafford","Safety","72","221","219","18","48","Norco","CA","USA","33.9323307","-117.5508901","06065"
"381689","30157","150","Duke","ACC","Atlanta","2013","249","7","43","Sean Renfree","Quarterback","75","219","206","11","50","Scottsdale","AZ","USA","33.4942189","-111.9260184","04013"
"384789","30074","2032","Arkansas State","Sun Belt","Miami","2013","250","7","44","Don Jones","Safety","","196","","","","Town Creek","AL","USA","34.6812012","-87.4061342","01079"
"-1032111","30039","2579","South Carolina","SEC","Cincinnati","2013","251","7","45","T.J. Johnson","Center","76","310","","6","31","Aynor","SC","USA","33.9998881","-79.1994874","45051"
"-1030437","30406","164","Rutgers","Big East","San Francisco","2013","252","7","46","Marcus Cooper","Cornerback","74","192","","114","30","Bloomfield","CT","USA","41.826488","-72.7300945","09003"
"381788","30509","113","UMass","Mid-American","New York","2013","253","7","47","Michael Cox","Running Back","72","220","","35","30","Dorchester","MA","USA","42.2973205","-71.0744952","25025"
"483208","29624","2579","South Carolina","SEC","Indianapolis","2013","254","7","48","Justice Cunningham","Tight End","75","258","","17","41","Pageland","SC","USA","34.7728831","-80.3921893","45025"
