"CollegeAthleteId","NflAthleteId","CollegeId","CollegeTeam","CollegeConference","NflTeam","Year","Overall","Round","Pick","Name","Position","Height","Weight","PreDraftRanking","PreDraftPositionRanking","PreDraftGrade","HometownInfo City","HometownInfo State","HometownInfo Country","HometownInfo Latitude","HometownInfo Longitude","HometownInfo CountyFips"
"3122132","51534","245","Texas A&M","SEC","Cleveland","2017","1","1","1","Myles Garrett","Defensive End","77","272","1","1","95","Arlington","TX","USA","32.701938999999996","-97.10562379033699","48439"
"3039707","51705","153","North Carolina","ACC","Chicago","2017","2","1","2","Mitchell Trubisky","Quarterback","74","222","27","1","89","","","","","",""
"3117258","51730","24","Stanford","Pac-12","San Francisco","2017","3","1","3","Solomon Thomas","Defensive Tackle","75","273","3","1","94","Coppell","TX","USA","32.9552598","-97.0155703","48113"
"559752","51572","99","LSU","SEC","Jacksonville","2017","4","1","4","Leonard Fournette","Running Back","73","240","4","1","93","New Orleans","LA","USA","29.9499323","-90.0701156","22071"
"545923","51674","2711","Western Michigan","Mid-American","Tennessee","2017","5","1","5","Corey Davis","Wide Receiver","75","209","15","2","91","Wheaton","IL","USA","41.8646959","-88.1101709","17043"
"559592","52106","99","LSU","SEC","New York","2017","6","1","6","Jamal Adams","Safety","72","214","2","1","94","Lewisville","TX","USA","33.046233","-96.994174","48121"
"546644","51583","228","Clemson","ACC","Los Angeles","2017","7","1","7","Mike Williams","Wide Receiver","76","218","12","1","91","Vance","SC","USA","33.4337744","-80.4228665","45075"
"3117251","51575","24","Stanford","Pac-12","Carolina","2017","8","1","8","Christian McCaffrey","Running Back","71","202","9","2","92","Castle Rock","CO","USA","39.3724232","-104.8586706","08035"
"550330","51811","264","Washington","Pac-12","Cincinnati","2017","9","1","9","John Ross","Wide Receiver","71","188","20","3","90","Long Beach","CA","USA","33.7690164","-118.1916048","06037"
"3139477","52092","2641","Texas Tech","Big 12","Kansas City","2017","10","1","10","Patrick Mahomes","Quarterback","74","225","44","3","85","Whitehouse","TX","USA","32.2268666","-95.2259279","48423"
"3121421","52107","194","Ohio State","Big Ten","New Orleans","2017","11","1","11","Marshon Lattimore","Cornerback","72","193","6","1","92","Cleveland","OH","USA","41.5051613","-81.6934446","39035"
"3122840","51563","228","Clemson","ACC","Houston","2017","12","1","12","Deshaun Watson","Quarterback","75","221","28","2","88","Gainesville","GA","USA","34.2978794","-83.8240663","13139"
"536179","51931","218","Temple","American Athletic","Arizona","2017","13","1","13","Haason Reddick","Inside Linebacker","74","237","11","2","92","Camden","NJ","USA","39.9448402","-75.1198911","34007"
"559724","51532","2633","Tennessee","SEC","Philadelphia","2017","14","1","14","Derek Barnett","Defensive End","75","259","13","2","91","Nashville","TN","USA","36.1622296","-86.7743531","47037"
"3121415","52108","194","Ohio State","Big Ten","Indianapolis","2017","15","1","15","Malik Hooker","Safety","73","206","10","2","92","New Castle","PA","USA","40.9999202","-80.3471856","42073"
"3126356","51719","333","Alabama","SEC","Baltimore","2017","16","1","16","Marlon Humphrey","Cornerback","72","197","23","3","89","Hoover","AL","USA","33.3848933","-86.8070484","01073"
"551288","51744","333","Alabama","SEC","Washington","2017","17","1","17","Jonathan Allen","Defensive Tackle","75","286","5","2","93","Leesburg","VA","USA","39.1154496","-77.5645446","51107"
"3120347","51594","30","USC","Pac-12","Tennessee","2017","18","1","18","Adoree' Jackson","Cornerback","70","186","29","5","88","Belleville","IL","USA","38.5200504","-89.9839935","17163"
"546370","51578","333","Alabama","SEC","Tampa Bay","2017","19","1","19","O.J. Howard","Tight End","78","251","7","1","92","Prattville","AL","USA","32.4640245","-86.4596966","01001"
"-1039929","51774","254","Utah","Pac-12","Denver","2017","20","1","20","Garett Bolles","Offensive Tackle","77","297","34","3","87","Lehi","UT","USA","40.3880902","-111.8491619","49049"
"551315","51992","57","Florida","SEC","Detroit","2017","21","1","21","Jarrad Davis","Inside Linebacker","73","238","25","3","89","Kingsland","GA","USA","30.7999563","-81.6898261","13039"
"549904","51991","142","Missouri","SEC","Miami","2017","22","1","22","Charles Harris","Outside Linebacker","75","253","18","1","90","Kansas City","MO","USA","39.100105","-94.5781416","29095"
"550117","51667","145","Ole Miss","SEC","New York","2017","23","1","23","Evan Engram","Tight End","75","234","21","3","90","Powder Springs","GA","USA","33.8595492","-84.683824","13067"
"549810","52110","194","Ohio State","Big Ten","Las Vegas","2017","24","1","24","Gareon Conley","Cornerback","72","195","","34","30","Massillon","OH","USA","40.7967244","-81.5215093","39151"
"3115962","51604","130","Michigan","Big Ten","Cleveland","2017","25","1","25","Jabrill Peppers","Safety","71","213","48","7","84","East Orange","NJ","USA","40.767323","-74.2048677","34013"
"3152371","52005","26","UCLA","Pac-12","Atlanta","2017","26","1","26","Takkarist McKinley","Defensive End","74","250","24","3","89","Richmond","CA","USA","37.9357576","-122.3477486","06013"
"545878","48609","99","LSU","SEC","Buffalo","2017","27","1","27","Tre'Davious White","Cornerback","71","192","26","4","89","Shreveport","LA","USA","32.5221828","-93.7651944","22017"
"546716","51689","130","Michigan","Big Ten","Dallas","2017","28","1","28","Taco Charlton","Defensive End","78","277","38","4","86","Pickerington","OH","USA","39.896277299999994","-82.77319049748806","39045"
"3123076","51793","2390","Miami","ACC","Cleveland","2017","29","1","29","David Njoku","Tight End","76","246","14","2","91","Cedar Grove","NJ","USA","40.8517662","-74.229035","34013"
"546866","52093","275","Wisconsin","Big Ten","Pittsburgh","2017","30","1","30","T.J. Watt","Outside Linebacker","77","252","37","3","86","Pewaukee","WI","USA","43.0805651","-88.2612045","55133"
"551292","51554","333","Alabama","SEC","San Francisco","2017","31","1","31","Reuben Foster","Inside Linebacker","72","229","8","1","92","Auburn","AL","USA","32.6550905","-85.50364346309962","01081"
"-1043790","51701","275","Wisconsin","Big Ten","New Orleans","2017","32","1","32","Ryan Ramczyk","Offensive Tackle","78","310","30","2","88","Stevens Point","WI","USA","44.5229223","-89.574111","55097"
"550323","52109","264","Washington","Pac-12","Green Bay","2017","33","2","1","Kevin King","Cornerback","75","200","22","2","89","Oakland","CA","USA","37.8044557","-122.2713563","06001"
"-1000867","51562","333","Alabama","SEC","Jacksonville","2017","34","2","2","Cam Robinson","Offensive Tackle","78","322","19","1","90","Monroe","LA","USA","32.5093109","-92.1193012","22073"
"3134681","51610","127","Michigan State","Big Ten","Seattle","2017","35","2","3","Malik McDowell","Defensive Tackle","78","295","41","3","86","Detroit","MI","USA","42.3315509","-83.0466403","26163"
"3127287","52098","264","Washington","Pac-12","Arizona","2017","36","2","4","Budda Baker","Safety","70","195","39","5","86","Bellevue","WA","USA","47.6144219","-122.1923372","53033"
"4044154","51683","151","East Carolina","American Athletic","Buffalo","2017","37","2","5","Zay Jones","Wide Receiver","74","201","32","4","87","","","","","",""
"536455","51767","98","Western Kentucky","Conference USA","Los Angeles","2017","38","2","6","Forrest Lamp","Offensive Guard","76","309","16","1","90","Venice","FL","USA","27.0999188","-82.4543597","12115"
"535922","51546","57","Florida","SEC","New York","2017","39","2","7","Marcus Maye","Safety","72","210","36","3","87","Melbourne ","FL","USA","28.0836269","-80.6081089","12009"
"3121427","51813","194","Ohio State","Big Ten","Carolina","2017","40","2","8","Curtis Samuel","Wide Receiver","71","196","42","5","86","Brooklyn","NY","USA","40.6501038","-73.9495823","36047"
"3116593","51658","52","Florida State","ACC","Minnesota","2017","41","2","9","Dalvin Cook","Running Back","70","210","17","3","90","Miami","FL","USA","25.7742658","-80.1936589","12086"
"3122882","52113","254","Utah","Pac-12","New Orleans","2017","42","2","10","Marcus Williams","Safety","73","202","52","8","83","Corona","CA","USA","33.8752945","-117.5664449","06065"
"3127299","51720","264","Washington","Pac-12","Philadelphia","2017","43","2","11","Sidney Jones","Cornerback","72","186","65","10","79","Diamond Bar","CA","USA","34.0286226","-117.8103367","06037"
"3918639","51669","6","South Alabama","Sun Belt","Los Angeles","2017","44","2","12","Gerald Everett","Tight End","75","239","96","7","73","Lithonia","GA","USA","33.7123305","-84.1051939","13089"
"","51794","308","Ashland","GLIAC","Chicago","2017","45","2","13","Adam Shaheen","Tight End","79","278","58","4","80","","","","","",""
"3121660","52097","57","Florida","SEC","Indianapolis","2017","46","2","14","Quincy Wilson","Cornerback","74","211","31","6","88","Fort Lauderdale ","FL","USA","26.1223084","-80.1433786","12011"
"545554","51643","248","Houston","American Athletic","Baltimore","2017","47","2","15","Tyus Bowser","Outside Linebacker","75","247","33","2","87","Tyler","TX","USA","32.3512601","-95.3010624","48423"
"3116385","51784","201","Oklahoma","Big 12","Cincinnati","2017","48","2","16","Joe Mixon","Running Back","73","228","47","5","84","Oakley","CA","USA","37.9974219","-121.7124536","06013"
"534454","51557","333","Alabama","SEC","Washington","2017","49","2","17","Ryan Anderson","Outside Linebacker","74","253","55","4","81","Daphne","AL","USA","30.6035255","-87.9036047","01003"
"3895859","51605","245","Texas A&M","SEC","Tampa Bay","2017","50","2","18","Justin Evans","Safety","72","199","92","9","74","Wiggins","MS","USA","30.858244","-89.1353283","28131"
"546814","51601","52","Florida State","ACC","Denver","2017","51","2","19","DeMarcus Walker","Defensive End","76","280","59","6","80","Jacksonville","FL","USA","30.3321838","-81.655651","12031"
"3129302","51681","87","Notre Dame","FBS Independents","Cleveland","2017","52","2","20","DeShone Kizer","Quarterback","76","233","54","4","82","Toledo","OH","USA","41.6786754","-83.5127283","39095"
"559561","52114","57","Florida","SEC","Detroit","2017","53","2","21","Teez Tabor","Cornerback","73","199","61","9","80","Washington","DC","USA","38.8949855","-77.0365708","11001"
"3121423","51621","194","Ohio State","Big Ten","Miami","2017","54","2","22","Raekwon McMillan","Inside Linebacker","74","240","78","7","76","Hinesville","GA","USA","31.8477298","-81.5960354","13179"
"535761","51547","333","Alabama","SEC","New York","2017","55","2","23","Dalvin Tomlinson","Defensive Tackle","75","310","75","6","76","McDonaugh","GA","USA","","",""
"533251","52100","41","Connecticut","American Athletic","Las Vegas","2017","56","2","24","Obi Melifonwu","Safety","76","224","46","6","85","South Grafton","MA","USA","39.3370361","-80.020355","54091"
"549972","51551","238","Vanderbilt","SEC","Houston","2017","57","2","25","Zach Cunningham","Inside Linebacker","76","234","53","4","82","Pinson","AL","USA","33.706205","-86.67007895992774","01073"
"-1016525","51556","99","LSU","SEC","Seattle","2017","58","2","26","Ethan Pocic","Center","78","310","81","2","75","Lemont","IL","USA","41.6737149","-88.0016263","17031"
"536740","51728","222","Villanova","CAA","Kansas City","2017","59","2","27","Tanoh Kpassagnon","Defensive End","79","289","91","10","74","","","","","",""
"550668","52112","38","Colorado","Pac-12","Dallas","2017","60","2","28","Chidobe Awuzie","Cornerback","72","202","49","8","83","San Jose","CA","USA","37.3361905","-121.8905833","06085"
"549940","52111","152","NC State","ACC","Green Bay","2017","61","2","29","Josh Jones","Safety","73","220","43","4","86","Walled Lake","MI","USA","42.537811","-83.4810481","26125"
"3120348","51581","30","USC","Pac-12","Pittsburgh","2017","62","2","30","JuJu Smith-Schuster","Wide Receiver","73","215","51","6","83","Long Beach","CA","USA","33.7690164","-118.1916048","06037"
"549775","51839","218","Temple","American Athletic","Buffalo","2017","63","2","31","Dion Dawkins","Offensive Guard","76","314","50","2","83","Rahway","NJ","USA","40.6081591","-74.2776468","34039"
"532660","51760","2711","Western Michigan","Mid-American","Carolina","2017","64","2","32","Taylor Moton","Offensive Tackle","77","319","62","4","79","Okemos","MI","USA","42.7220755","-84.4275232","26065"
"551905","51678","2429","Charlotte","Conference USA","Cleveland","2017","65","3","1","Larry Ogunjobi","Defensive Tackle","75","305","73","5","77","Greensboro","NC","USA","36.0726355","-79.7919754","37081"
"3122630","51977","38","Colorado","Pac-12","San Francisco","2017","66","3","2","Ahkello Witherspoon","Cornerback","75","198","85","14","74","Sacramento","CA","USA","38.5815719","-121.4943996","06067"
"551298","51783","2633","Tennessee","SEC","New Orleans","2017","67","3","3","Alvin Kamara","Running Back","70","214","40","4","86","Norcross","GA","USA","33.9412127","-84.2135309","13135"
"3042476","51599","356","Illinois","Big Ten","Jacksonville","2017","68","3","4","Dawaune Smoot","Defensive End","75","264","90","9","74","","","","","",""
"534695","51682","331","Eastern Washington","Big Sky","Los Angeles","2017","69","3","5","Cooper Kupp","Wide Receiver","74","204","64","7","79","","","","","",""
"-1027087","51628","194","Ohio State","Big Ten","Minnesota","2017","70","3","6","Pat Elflein","Center","75","303","76","1","76","Pickerington","OH","USA","39.896277299999994","-82.77319049748806","39045"
"-1013906","51633","84","Indiana","Big Ten","Los Angeles","2017","71","3","7","Dan Feeney","Offensive Guard","76","305","57","3","80","Orland Park","IL","USA","41.602686500000004","-87.85572251521427","17031"
"552775","51710","98","Western Kentucky","Conference USA","Tennessee","2017","72","3","8","Taywan Taylor","Wide Receiver","71","203","80","8","76","Louisville","KY","USA","38.2542376","-85.759407","21111"
"550162","51726","2306","Kansas State","Big 12","Cincinnati","2017","73","3","9","Jordan Willis","Defensive End","76","255","45","5","85","Kansas City","MO","USA","39.100105","-94.5781416","29095"
"535151","51613","130","Michigan","Big Ten","Baltimore","2017","74","3","10","Chris Wormley","Defensive Tackle","77","298","56","4","80","Toledo","OH","USA","41.6786754","-83.5127283","39095"
"545886","51750","99","LSU","SEC","Atlanta","2017","75","3","11","Duke Riley","Inside Linebacker","73","232","66","5","78","Buras","LA","USA","29.351886","-89.5242248","22075"
"546305","51755","57","Florida","SEC","New Orleans","2017","76","3","12","Alex Anzalone","Inside Linebacker","75","241","72","6","77","Wyomissing","PA","USA","40.329537","-75.9652117","42011"
"549867","51535","245","Texas A&M","SEC","Carolina","2017","77","3","13","Daeshon Hall","Defensive End","77","266","93","11","73","Seattle","WA","USA","47.6038321","-122.3300624","53033"
"551309","51639","333","Alabama","SEC","Baltimore","2017","78","3","14","Tim Williams","Outside Linebacker","75","244","60","5","80","Baton Rouge","LA","USA","30.4459596","-91.18738","22033"
"551307","101496","333","Alabama","SEC","New York","2017","79","3","15","ArDarius Stewart","Wide Receiver","71","204","87","9","74","Fultondale","AL","USA","33.631438","-86.78332454213484","01073"
"550679","51729","195","Ohio","Mid-American","Indianapolis","2017","80","3","16","Tarell Basham","Defensive End","76","269","74","7","77","Rocky Mount","VA","USA","36.9962007","-79.8909474","51067"
"530979","48660","26","UCLA","Pac-12","Washington","2017","81","3","17","Fabian Moreau","Cornerback","73","206","68","11","78","Sunrise","FL","USA","26.1482449","-80.32888594100868","12011"
"545669","51815","2348","Louisiana Tech","Conference USA","Denver","2017","82","3","18","Carlos Henderson","Wide Receiver","71","199","108","12","72","New Orleans","LA","USA","29.9499323","-90.0701156","22071"
"548411","51823","2754","Youngstown State","MVFC","New England","2017","83","3","19","Derek Rivers","Outside Linebacker","76","248","70","6","77","","","","","",""
"3116165","51796","213","Penn State","Big Ten","Tampa Bay","2017","84","3","20","Chris Godwin","Wide Receiver","73","209","106","11","72","Middletown","DE","USA","39.4496857","-75.7166811","10003"
"531730","52043","2653","Troy","Sun Belt","New England","2017","85","3","21","Antonio Garcia","Offensive Tackle","78","302","82","5","75","Atlanta","GA","USA","33.7490987","-84.3901849","13121"
"552745","51662","2649","Toledo","Mid-American","Kansas City","2017","86","3","22","Kareem Hunt","Running Back","71","216","86","7","74","Willoughby","OH","USA","41.6397696","-81.4065011","39085"
"550386","51680","25","California","Pac-12","New York","2017","87","3","23","Davis Webb","Quarterback","77","229","95","7","73","Prosper","TX","USA","33.2385763","-96.7866058","48085"
"547608","48838","26","UCLA","Pac-12","Las Vegas","2017","88","3","24","Eddie Vanderdoes","Defensive Tackle","75","305","149","14","61","Auburn","CA","USA","38.8945939","-121.0739897","06061"
"3125116","51716","251","Texas","Big 12","Houston","2017","89","3","25","D'Onta Foreman","Running Back","72","233","103","8","73","Texas City","TX","USA","29.396013","-94.9175485","48167"
"551183","51980","2116","UCF","American Athletic","Seattle","2017","90","3","26","Shaquill Griffin","Cornerback","72","194","127","17","67","St. Petersburg","FL","USA","27.7703796","-82.6695085","12103"
"-1005302","51734","103","Boston College","ACC","Los Angeles","2017","91","3","27","John Johnson","Safety","73","208","97","10","73","West Hyattsville","MD","USA","38.9552277","-76.96952","24033"
"546713","51591","130","Michigan","Big Ten","Dallas","2017","92","3","28","Jourdan Lewis","Cornerback","70","188","35","7","87","Detroit","MI","USA","42.3315509","-83.0466403","26163"
"550017","51548","2","Auburn","SEC","Green Bay","2017","93","3","29","Montravius Adams","Defensive Tackle","76","304","102","7","73","Vienna","GA","USA","32.0913402","-83.7964675","13093"
"3044724","51523","2633","Tennessee","SEC","Pittsburgh","2017","94","3","30","Cam Sutton","Cornerback","71","188","94","15","73","","","","","",""
"546720","51694","130","Michigan","Big Ten","Seattle","2017","95","3","31","Delano Hill","Safety","73","216","203","19","49","Detroit","MI","USA","42.3315509","-83.0466403","26163"
"533961","51987","2459","Northern Illinois","Mid-American","Detroit","2017","96","3","32","Kenny Golladay","Wide Receiver","76","218","201","29","50","Chicago","IL","USA","41.8755616","-87.6244212","17031"
"546642","51590","228","Clemson","ACC","Miami","2017","97","3","33","Cordrea Tankersley","Cornerback","73","199","138","21","63","Beech Island","SC","USA","33.4273614","-81.8909473","45003"
"554568","52077","2755","Grambling","SWAC","Arizona","2017","98","3","34","Chad Williams","Wide Receiver","73","207","213","32","48","","","","","",""
"3943270","51817","277","West Virginia","Big 12","Philadelphia","2017","99","3","35","Rasul Douglas","Cornerback","74","209","105","16","72","East Orange","NJ","USA","40.767323","-74.2048677","34013"
"3054212","51828","2229","Florida International","Conference USA","Tennessee","2017","100","3","36","Jonnu Smith","Tight End","75","248","126","11","67","","","","","",""
"546338","51722","2320","Lamar","Southland","Denver","2017","101","3","37","Brendan Langley","Cornerback","72","201","136","19","65","","","","","",""
"545252","51746","153","North Carolina","ACC","Seattle","2017","102","3","38","Nazair Jones","Defensive Tackle","77","304","200","18","50","Roanoke Rapids","NC","USA","36.4610756","-77.6548026","37083"
"550879","51715","2226","Florida Atlantic","Conference USA","New Orleans","2017","103","3","39","Trey Hendrickson","Defensive End","76","266","83","8","75","Apopka","FL","USA","28.6779683","-81.5115214","12095"
"535844","51564","2294","Iowa","Big Ten","San Francisco","2017","104","3","40","C.J. Beathard","Quarterback","75","219","156","9","59","Franklin","TN","USA","35.925193","-86.8689365","47187"
"546653","51661","221","Pittsburgh","ACC","Pittsburgh","2017","105","3","41","James Conner","Running Back","74","233","122","10","68","Erie","PA","USA","42.1294712","-80.0852695","42049"
"535165","51684","130","Michigan","Big Ten","Seattle","2017","106","3","42","Amara Darboh","Wide Receiver","74","214","112","14","71","West Des Moines","IA","USA","41.5645337","-93.7595281","19153"
"545894","51550","99","LSU","SEC","Tampa Bay","2017","107","3","43","Kendell Beckwith","Inside Linebacker","74","243","88","8","74","Clinton","LA","USA","30.8657","-91.0157","36065"
"534807","51644","275","Wisconsin","Big Ten","Green Bay","2017","108","4","1","Vince Biegel","Outside Linebacker","75","246","135","7","65","Wisconsin Rapids","WI","USA","44.3917589","-89.8228767","55141"
"535847","51617","2294","Iowa","Big Ten","Minnesota","2017","109","4","2","Jaleel Johnson","Defensive Tackle","75","316","109","9","71","Lombard","IL","USA","41.8864687","-88.0201536","17043"
"3892889","51814","201","Oklahoma","Big 12","Jacksonville","2017","110","4","3","Dede Westbrook","Wide Receiver","72","178","188","27","52","Cameron","TX","USA","30.8532454","-96.9769304","48331"
"550285","51868","38","Colorado","Pac-12","Seattle","2017","111","4","4","Tedric Thompson","Safety","72","204","267","23","39","Valencia","CA","USA","34.1466768","-117.2725427","06071"
"551295","51545","333","Alabama","SEC","Chicago","2017","112","4","5","Eddie Jackson","Safety","72","201","145","13","62","Lauderdale Lakes","FL","USA","26.1667184","-80.2085565","12011"
"530397","51735","2390","Miami","ACC","Los Angeles","2017","113","4","6","Rayshawn Jenkins","Safety","73","214","161","15","59","St. Petersburg","FL","USA","27.7703796","-82.6695085","12103"
"3116389","51659","201","Oklahoma","Big 12","Washington","2017","114","4","7","Samaje Perine","Running Back","71","233","71","6","77","Pflugerville","TX","USA","30.4393696","-97.6200043","48453"
"-1029425","51636","221","Pittsburgh","ACC","Arizona","2017","115","4","8","Dorian Johnson","Offensive Guard","77","300","89","4","74","Belle Vernon","PA","USA","40.1250725","-79.8664356","42051"
"550034","48703","2","Auburn","SEC","Cincinnati","2017","116","4","9","Carl Lawson","Defensive End","74","261","101","12","73","Alpharetta","GA","USA","34.0709576","-84.2747329","13121"
"559694","51587","245","Texas A&M","SEC","Los Angeles","2017","117","4","10","Josh Reynolds","Wide Receiver","75","194","130","17","67","San Antonio","TX","USA","29.4246002","-98.4951405","48029"
"540210","51671","153","North Carolina","ACC","Philadelphia","2017","118","4","12","Mack Hollins","Wide Receiver","76","221","100","10","73","Rockville","MD","USA","39.0840054","-77.1527573","24031"
"554513","51906","2448","North Carolina A&T","MEAC","Chicago","2017","119","4","13","Tarik Cohen","Running Back","67","179","246","24","43","","","","","",""
"546718","51753","130","Michigan","Big Ten","Minnesota","2017","120","4","14","Ben Gedeon","Inside Linebacker","74","244","99","9","73","Hudson","OH","USA","41.240056","-81.440667","39153"
"3912576","51901","254","Utah","Pac-12","San Francisco","2017","121","4","15","Joe Williams","Running Back","71","210","184","17","54","Allentown","PA","USA","40.6022059","-75.4712794","42077"
"-1031066","51761","21","San Diego State","Mountain West","Baltimore","2017","122","4","16","Nico Siragusa","Offensive Guard","76","319","119","5","69","Chula Vista","CA","USA","32.6400541","-117.0841955","06073"
"3134683","51740","127","Michigan State","Big Ten","Washington","2017","123","4","17","Montae Nicholson","Safety","74","212","147","14","61","Monroeville","PA","USA","40.4211798","-79.7881025","42003"
"546549","51993","2633","Tennessee","SEC","Detroit","2017","124","4","18","Jalen Reeves-Maybin","Outside Linebacker","72","230","193","10","51","Clarksville","TN","USA","36.5277607","-87.3588703","47125"
"547055","100102","331","Eastern Washington","Big Sky","Los Angeles","2017","125","4","19","Samson Ebukam","Outside Linebacker","74","240","","34","30","","","","","",""
"3126176","51724","248","Houston","American Athletic","Cleveland","2017","126","4","20","Howard Wilson","Cornerback","73","184","133","18","66","DeSoto","TX","USA","32.6061241","-96.865612653687","48113"
"552851","51795","2649","Toledo","Mid-American","Detroit","2017","127","4","21","Michael Roberts","Tight End","76","270","173","13","57","Cleveland","OH","USA","41.5051613","-81.6934446","39035"
"559718","51799","2633","Tennessee","SEC","Cincinnati","2017","128","4","22","Josh Malone","Wide Receiver","75","208","111","13","71","Gallatin","TN","USA","36.3883031","-86.4475898","47165"
"-1009774","51759","57","Florida","SEC","Las Vegas","2017","129","4","23","David Sharpe","Offensive Guard","78","343","168","8","58","Jacksonville","FL","USA","30.3321838","-81.655651","12031"
"3047614","51773","2083","Bucknell","Patriot","Houston","2017","130","4","24","Julien Davenport","Offensive Tackle","79","318","128","8","67","","","","","",""
"-1002242","51530","8","Arkansas","SEC","New England","2017","131","4","25","Deatrich Wise Jr.","Defensive End","77","274","176","15","56","Carrollton","TX","USA","32.9537349","-96.8902816","48113"
"547571","52088","21","San Diego State","Mountain West","Philadelphia","2017","132","4","26","Donnel Pumphrey","Running Back","68","176","115","9","69","Las Vegas","NV","USA","36.1672559","-115.1485163","32003"
"545256","51712","153","North Carolina","ACC","Dallas","2017","133","4","27","Ryan Switzer","Wide Receiver","69","181","139","18","63","Charleston","WV","USA","38.3505995","-81.6332812","54039"
"536136","51333","252","BYU","FBS Independents","Green Bay","2017","134","4","28","Jamaal Williams","Running Back","72","212","143","12","62","Fontana","CA","USA","34.0922335","-117.435048","06071"
"546540","51565","2633","Tennessee","SEC","Pittsburgh","2017","135","4","29","Joshua Dobbs","Quarterback","75","216","63","5","79","Alpharetta","GA","USA","34.0709576","-84.2747329","13121"
"-1028720","52047","204","Oregon State","Pac-12","Atlanta","2017","136","4","30","Sean Harlow","Center","76","303","180","5","55","Anaheim Hills","CA","USA","33.8256835","-117.7565662","06059"
"531008","51652","30","USC","Pac-12","Indianapolis","2017","137","4","31","Zach Banner","Offensive Tackle","80","353","114","6","70","Tacoma","WA","USA","47.2495798","-122.4398746","53053"
"535171","51695","130","Michigan","Big Ten","Cincinnati","2017","138","4","32","Ryan Glasgow","Defensive Tackle","75","302","132","11","66","Aurora","IL","USA","41.7571701","-88.3147539","17089"
"535167","51584","130","Michigan","Big Ten","Kansas City","2017","139","4","33","Jehu Chesson","Wide Receiver","75","204","159","21","59","St. Louis","MO","USA","38.6268039","-90.1994097","29510"
"546633","51660","228","Clemson","ACC","New York","2017","140","4","34","Wayne Gallman","Running Back","73","215","166","16","58","Loganville","GA","USA","33.8389977","-83.9007382","13297"
"554399","51803","25","California","Pac-12","New York","2017","141","4","35","Chad Hansen","Wide Receiver","74","202","163","22","58","Fillmore","CA","USA","34.38395800000001","-118.93659550000001","06111"
"534596","51619","228","Clemson","ACC","Houston","2017","142","4","36","Carlos Watkins","Defensive Tackle","75","309","104","8","72","Mooresboro","NC","USA","35.2987362","-81.6989863","37045"
"3139605","51792","58","South Florida","American Athletic","Indianapolis","2017","143","4","37","Marlon Mack","Running Back","71","213","148","13","61","Sarasota","FL","USA","27.3364347","-82.5306527","12115"
"4058825","52095","2013","Albany State (GA)","SIAC","Indianapolis","2017","144","4","38","Grover Stewart","Defensive Tackle","76","334","317","23","34","","","","","",""
"546731","51664","130","Michigan","Big Ten","Denver","2017","145","5","1","Jake Butt","Tight End","78","246","67","5","78","Pickerington","OH","USA","39.896277299999994","-82.77319049748806","39045"
"545428","51917","2294","Iowa","Big Ten","San Francisco","2017","146","5","2","George Kittle","Tight End","76","247","123","10","68","Norman","OK","USA","35.2225717","-97.4394816","40027"
"","51763","2315","Kutztown","Pennsylvania State Athletic","Chicago","2017","147","5","3","Jordan Morgan","Offensive Guard","75","309","205","11","49","","","","","",""
"536286","51936","195","Ohio","Mid-American","Jacksonville","2017","148","5","4","Blair Brown","Inside Linebacker","72","238","110","10","71","Moreno Valley","CA","USA","33.937517","-117.2305944","06065"
"534370","51598","21","San Diego State","Mountain West","Atlanta","2017","149","5","5","Damontae Kazee","Cornerback","70","184","84","13","75","San Bernardino","CA","USA","34.1083449","-117.2897652","06071"
"546740","51665","228","Clemson","ACC","New York","2017","150","5","6","Jordan Leggett","Tight End","78","258","79","6","76","Navarre","FL","USA","30.4019789","-86.8700821","12113"
"545375","51589","2294","Iowa","Big Ten","Los Angeles","2017","151","5","7","Desmond King","Cornerback","70","201","77","12","76","Detroit","MI","USA","42.3315509","-83.0466403","26163"
"550052","51723","2390","Miami","ACC","Carolina","2017","152","5","8","Corn Elder","Cornerback","70","183","137","20","64","Nashville","TN","USA","36.1622296","-86.7743531","47037"
"549513","51775","235","Memphis","American Athletic","Cincinnati","2017","153","5","9","Jake Elliott","Place Kicker","69","167","329","3","32","Western Springs","IL","USA","41.8096132","-87.900671","17031"
"535889","51577","8","Arkansas","SEC","Washington","2017","154","5","10","Jeremy Sprinkle","Tight End","77","252","170","12","58","White Hall","AR","USA","34.2739862","-92.0909766","05069"
"547597","51990","26","UCLA","Pac-12","Tennessee","2017","155","5","11","Jayon Brown","Outside Linebacker","72","231","","21","30","Long Beach","CA","USA","33.7690164","-118.1916048","06037"
"3125403","51785","2751","Wyoming","Mountain West","Atlanta","2017","156","5","12","Brian Hill","Running Back","73","219","189","18","52","Belleville","IL","USA","38.5200504","-89.9839935","17163"
"-1040689","51999","238","Vanderbilt","SEC","Arizona","2017","157","5","13","Will Holden","Offensive Tackle","80","311","131","9","66","Green Cove Springs","FL","USA","29.9919085","-81.6781467","12019"
"534270","51829","218","Temple","American Athletic","Indianapolis","2017","158","5","14","Nate Hairston","Cornerback","72","196","144","22","62","Frederick","MD","USA","39.4142186","-77.4109269","24021"
"-1035094","51703","245","Texas A&M","SEC","Baltimore","2017","159","5","15","Jermaine Eluemunor","Offensive Tackle","76","332","117","7","69","Denville","NJ","USA","40.883806","-74.4809999","34027"
"-1010911","51647","52","Florida State","ACC","Cleveland","2017","160","5","16","Roderick Johnson","Offensive Tackle","79","298","150","10","61","Florissant","MO","USA","38.7919683","-90.3227803","29189"
"3045251","52094","77","Northwestern","Big Ten","Indianapolis","2017","161","5","17","Anthony Walker Jr.","Inside Linebacker","73","238","121","11","68","","","","","",""
"3127586","51786","68","Boise State","Mountain West","Tampa Bay","2017","162","5","18","Jeremy McNichols","Running Back","69","214","153","14","60","Long Beach","CA","USA","33.7690164","-118.1916048","06037"
"547239","51645","103","Boston College","ACC","Buffalo","2017","163","5","19","Matt Milano","Outside Linebacker","73","223","229","14","45","Orlando","FL","USA","28.5421109","-81.3790304","12095"
"516260","51762","254","Utah","Pac-12","Miami","2017","164","5","20","Isaac Asiata","Offensive Guard","75","323","129","6","67","Spanish Fork","UT","USA","40.114955","-111.654923","49049"
"3061612","101298","301","San Diego","Pioneer","Detroit","2017","165","5","21","Jamal Agnew","Cornerback","70","186","","39","30","","","","","",""
"546034","51849","277","West Virginia","Big 12","Philadelphia","2017","166","5","22","Shelton Gibson","Wide Receiver","71","191","142","19","62","Cleveland Heights","OH","USA","41.5200518","-81.556235","39035"
"533293","51864","2754","Youngstown State","MVFC","New York","2017","167","5","23","Avery Moss","Defensive End","75","264","241","24","43","Tempe","AZ","USA","33.4255056","-111.9400125","04013"
"545302","51890","154","Wake Forest","ACC","Las Vegas","2017","168","5","24","Marquel Lee","Outside Linebacker","75","240","268","17","39","Waldorf","MD","USA","38.6263882","-76.9106581","24017"
"2985844","51982","204","Oregon State","Pac-12","Houston","2017","169","5","25","Treston Decoud","Cornerback","74","206","245","26","43","Covington","LA","USA","30.4754702","-90.1009108","21117"
"552748","51945","58","South Florida","American Athletic","Minnesota","2017","170","5","27","Rodney Adams","Wide Receiver","73","189","303","51","35","St. Petersburg","FL","USA","27.7703796","-82.6695085","12103"
"532065","51779","221","Pittsburgh","ACC","Buffalo","2017","171","5","28","Nathan Peterman","Quarterback","75","226","69","6","77","Fruit Cove","FL","USA","30.0928745","-81.60699194552737","12109"
"3128724","51802","61","Georgia","SEC","Denver","2017","172","5","29","Isaiah McKenzie","Wide Receiver","68","173","152","20","60","Miami","FL","USA","25.7742658","-80.1936589","12086"
"531015","51983","254","Utah","Pac-12","Pittsburgh","2017","173","5","30","Brian Allen","Cornerback","75","215","179","24","55","La Marque","TX","USA","29.3685674","-94.9713134","48167"
"2975863","51847","2181","Drake","Pioneer","Atlanta","2017","174","5","31","Eric Saubert","Tight End","77","253","187","14","53","","","","","",""
"3052470","52072","2509","Purdue","Big Ten","Green Bay","2017","175","5","32","Deangelo Yancey","Wide Receiver","74","220","194","28","51","","","","","",""
"-1039936","51946","254","Utah","Pac-12","Cincinnati","2017","176","5","33","J.J. Dielman","Center","77","309","260","8","40","Ahwatukee","AZ","USA","33.3194186","-112.0312962","04013"
"545677","51804","2348","Louisiana Tech","Conference USA","San Francisco","2017","177","5","34","Trent Taylor","Wide Receiver","68","181","266","45","40","Shreveport","LA","USA","32.5221828","-93.7651944","22017"
"559602","51747","99","LSU","SEC","Miami","2017","178","5","35","Davon Godchaux","Defensive Tackle","75","310","","25","30","Plaquemine","LA","USA","30.2890833","-91.2342744","22047"
"545254","52091","153","North Carolina","ACC","Arizona","2017","179","5","36","T.J. Logan","Running Back","70","196","158","15","59","Greensboro","NC","USA","36.0726355","-79.7919754","37081"
"530395","51764","2390","Miami","ACC","Minnesota","2017","180","5","37","Danny Isidora","Offensive Guard","75","306","214","12","48","Weston","FL","USA","26.103632","-80.40310198173701","12011"
"2584628","51956","2698","West Georgia","Gulf South","New York","2017","181","5","38","Dylan Donahue","Defensive End","75","248","320","30","33","","","","","",""
"545833","51788","2638","UTEP","Conference USA","Green Bay","2017","182","5","39","Aaron Jones","Running Back","70","208","300","29","36","El Paso","TX","USA","31.7754152","-106.4646348","48141"
"530291","51880","290","Georgia Southern","Sun Belt","Kansas City","2017","183","5","40","Ukeme Eligwe","Inside Linebacker","74","234","225","12","46","Stone Mountain","GA","USA","33.8080924","-84.1706273","13089"
"545594","51736","158","Nebraska","Big Ten","Philadelphia","2017","184","5","41","Nathan Gerry","Safety","74","218","192","18","51","Sioux Falls","SD","USA","43.5499749","-96.700327","46099"
"551314","51549","57","Florida","SEC","Cleveland","2017","185","6","1","Caleb Brantley","Defensive Tackle","75","307","","24","33","Crescent City ","FL","USA","29.4302514","-81.5106288","12107"
"547019","51949","259","Virginia Tech","ACC","Baltimore","2017","186","6","2","Chuck Clark","Safety","72","208","288","25","37","Suffolk","VA","USA","36.7282096","-76.5835703","51800"
"552230","51874","2132","Cincinnati","American Athletic","Seattle","2017","187","6","3","Mike Tyson","Safety","73","204","243","21","43","Norfolk","VA","USA","36.8462923","-76.2929252","51710"
"545809","51905","309","Louisiana","Sun Belt","New York","2017","188","6","4","Elijah McGuire","Running Back","70","214","196","19","50","Houma","LA","USA","29.5957696","-90.7195348","22109"
"545772","51742","2655","Tulane","American Athletic","Los Angeles","2017","189","6","5","Tanzel Smart","Defensive Tackle","73","296","146","13","62","Baton Rouge","LA","USA","30.4459596","-91.18738","22033"
"-1039950","51998","254","Utah","Pac-12","Los Angeles","2017","190","6","6","Sam Tevi","Offensive Tackle","77","311","216","15","48","Euless","TX","USA","32.8457865","-97.0667142473263","48439"
"545680","51866","2348","Louisiana Tech","Conference USA","Dallas","2017","191","6","7","Xavier Woods","Safety","71","197","","32","30","West Monroe","LA","USA","32.5184775","-92.1476353","22073"
"","52051","2698","West Georgia","Gulf South","Carolina","2017","192","6","8","Alexander Armah","Defensive End","72","244","","54","30","","","","","",""
"550490","51882","201","Oklahoma","Big 12","Cincinnati","2017","193","6","9","Jordan Evans","Inside Linebacker","75","232","","23","30","Norman","OK","USA","35.2225717","-97.4394816","40027"
"547166","51741","197","Oklahoma State","Big 12","Miami","2017","194","6","10","Vincent Taylor","Defensive Tackle","75","304","151","15","60","San Antonio","TX","USA","29.4246002","-98.4951405","48029"
"546229","52003","68","Boise State","Mountain West","Buffalo","2017","195","6","11","Tanner Vallejo","Outside Linebacker","73","228","255","15","41","Penn Valley","CA","USA","39.1948165","-121.19264637070282","06057"
"3051942","51727","2390","Miami","ACC","New Orleans","2017","196","6","12","Al-Quadin Muhammad","Defensive End","76","253","230","22","45","","","","","",""
"535149","51687","130","Michigan","Big Ten","New York","2017","197","6","13","Jeremy Clark","Cornerback","75","220","337","33","31","Madisonville","KY","USA","37.3280037","-87.4986989","21107"
"3894915","51743","145","Ole Miss","SEC","San Francisco","2017","198","6","14","D.J. Jones","Defensive Tackle","73","319","162","16","59","Greenville","SC","USA","34.851354","-82.3984882","45045"
"-1044129","51756","2751","Wyoming","Mountain West","Washington","2017","199","6","15","Chase Roullier","Center","76","312","195","6","51","Savage","MN","USA","44.7779041","-93.3356204","27139"
"-1029414","51989","221","Pittsburgh","ACC","New York","2017","200","6","16","Adam Bisnowaty","Offensive Guard","78","304","160","7","59","Pittsburgh","PA","USA","40.4416941","-79.9900861","42003"
"547022","51666","259","Virginia Tech","ACC","Minnesota","2017","201","6","17","Bucky Hodges","Tight End","78","257","107","8","72","Virginia Beach","VA","USA","36.8529841","-75.9774183","51810"
"551348","51948","254","Utah","Pac-12","San Francisco","2017","202","6","18","Pita Taumoepenu","Defensive End","73","243","314","29","34","Provo","UT","USA","40.2338438","-111.6585337","49049"
"2968226","51908","324","Coastal Carolina","FCS Independents","Denver","2017","203","6","19","De'Angelo Henderson","Running Back","68","208","234","23","44","","","","","",""
"550121","101414","145","Ole Miss","SEC","New York","2017","204","6","20","Derrick Jones","Cornerback","74","189","","43","30","Eupora","MS","USA","33.5406769","-89.2670124","28155"
"3892689","51996","8","Arkansas","SEC","Detroit","2017","205","6","21","Jeremiah Ledbetter","Defensive End","75","280","167","14","58","Orlando","FL","USA","28.5421109","-81.3790304","12095"
"547028","51748","259","Virginia Tech","ACC","Los Angeles","2017","206","6","22","Sam Rogers","Fullback","70","231","291","2","37","Mechanicsville","VA","USA","37.6193174","-77.3369627","51085"
"536828","51861","248","Houston","American Athletic","Cincinnati","2017","207","6","23","Brandon Wilson","Cornerback","70","198","","54","30","Shreveport","LA","USA","32.5221828","-93.7651944","22017"
"550024","52044","2","Auburn","SEC","Arizona","2017","208","6","24","Rudy Ford","Safety","71","205","134","12","65","","","","","",""
"545837","51988","2247","Georgia State","Sun Belt","Washington","2017","209","6","25","Robert Davis","Wide Receiver","75","219","178","23","56","Warner Robins","GA","USA","32.6200973","-83.606568","13153"
"-1022039","51824","344","Mississippi State","SEC","Seattle","2017","210","6","26","Justin Senior","Offensive Tackle","77","331","236","16","44","Montreal","QC","Canada","","",""
"-1038255","51653","26","UCLA","Pac-12","New England","2017","211","6","28","Conor McDermott","Offensive Tackle","80","307","191","13","51","Nashville","TN","USA","36.1622296","-86.7743531","47037"
"-1032340","101415","58","South Florida","American Athletic","Green Bay","2017","212","6","29","Kofi Amichia","Offensive Tackle","76","304","","44","30","Powder Springs","GA","USA","33.8595492","-84.683824","13067"
"545581","51627","97","Louisville","ACC","Pittsburgh","2017","213","6","30","Colin Holba","Long Snapper","76","248","","1","30","Louisville","KY","USA","38.2542376","-85.759407","21111"
"550328","51745","264","Washington","Pac-12","Philadelphia","2017","214","6","31","Elijah Qualls","Defensive Tackle","73","313","141","12","63","Petaluma","CA","USA","38.270022","-122.60612241304348","06097"
"3123048","51567","2390","Miami","ACC","Detroit","2017","215","6","32","Brad Kaaya","Quarterback","76","214","116","8","69","Los Angeles","CA","USA","34.0536909","-118.2427666","06037"
"546815","51688","52","Florida State","ACC","Dallas","2017","216","6","33","Marquez White","Cornerback","72","194","165","23","58","Dothan","AL","USA","31.2237434","-85.3933906","01069"
"2973637","51938","236","Chattanooga","Southern","Tennessee","2017","217","6","34","Corey Levin","Offensive Guard","76","307","235","13","44","","","","","",""
"546419","101406","30","USC","Pac-12","Kansas City","2017","218","6","35","Leon McQuay III","Safety","73","197","","41","30","Seffner","FL","USA","27.998541000000003","-82.27488400114905","12057"
"550046","49372","2390","Miami","ACC","Minnesota","2017","219","7","1","Stacy Coley","Wide Receiver","72","195","228","37","45","Pompano Beach","FL","USA","26.2378597","-80.1247667","12011"
"533322","51966","77","Northwestern","Big Ten","Minnesota","2017","220","7","2","Ifeadi Odenigbo","Defensive End","75","258","199","18","50","Centerville","OH","USA","39.6283928","-84.1593818","39113"
"3894908","51967","265","Washington State","Pac-12","Las Vegas","2017","221","7","3","Shalom Luani","Safety","71","202","252","22","42","Masausi","","American Samoa","","",""
"545469","51979","135","Minnesota","Big Ten","Jacksonville","2017","222","7","4","Jalen Myrick","Cornerback","70","200","249","27","42","Bloomingdale","GA","USA","32.1324249","-81.2990018","13051"
"3052515","51819","30","USC","Pac-12","Tampa Bay","2017","223","7","5","Stevie Tu'Ikolovatu","Defensive Tackle","73","331","125","10","68","","","","","",""
"546436","51776","9","Arizona State","Pac-12","Cleveland","2017","224","7","6","Zane Gonzalez","Place Kicker","73","202","321","2","33","Deer Park","TX","USA","29.7052284","-95.1238204","48201"
"550963","51600","87","Notre Dame","FBS Independents","Los Angeles","2017","225","7","7","Isaac Rochell","Defensive End","76","280","181","16","55","McDonough","GA","USA","33.4473361","-84.1468616","13151"
"4212909","52081","2191","East Central","Great American","Seattle","2017","226","7","8","David Moore","Wide Receiver","73","219","","87","30","","","","","",""
"531252","51642","2628","TCU","Big 12","Tennessee","2017","227","7","9","Josh Carraway","Outside Linebacker","75","242","157","8","59","Flower Mound","TX","USA","33.0283854","-97.0867203","48121"
"546310","100078","57","Florida","SEC","Dallas","2017","228","7","10","Joey Ivie","Defensive Tackle","75","298","","28","30","Dade City ","FL","USA","28.3647248","-82.1959178","12101"
"531058","101390","2390","Miami","ACC","San Francisco","2017","229","7","11","Adrian Colbert","Safety","73","200","","34","30","Mineral Wells","TX","USA","32.8084605","-98.1128223","48363"
"534670","51607","97","Louisville","ACC","Washington","2017","230","7","12","Josh Harvey-Clemons","Safety","76","217","177","17","56","Valdosta","GA","USA","30.8327022","-83.2784851","13185"
"2981069","100083","2011","Alabama State","SWAC","Las Vegas","2017","231","7","13","Jylan Ware","Offensive Tackle","80","317","","24","30","","","","","",""
"3125073","51772","2306","Kansas State","Big 12","Minnesota","2017","232","7","14","Elijah Lee","Outside Linebacker","75","229","322","19","33","Blue Springs","MO","USA","39.017316","-94.282265","29095"
"551558","51972","59","Georgia Tech","ACC","Carolina","2017","233","7","15","Harrison Butker","Place Kicker","76","199","","4","30","Decatur","GA","USA","33.7737582","-84.296069","13089"
"511655","48753","221","Pittsburgh","ACC","Los Angeles","2017","234","7","16","Ejuan Price","Outside Linebacker","71","241","197","11","50","Rankin","PA","USA","40.412569","-79.8792161","42003"
"2971036","51856","2","Auburn","SEC","Washington","2017","235","7","17","Josh Holsey","Cornerback","70","190","","38","30","","","","","",""
"2982323","100160","222","Villanova","CAA","Tennessee","2017","236","7","18","Brad Seaton","Offensive Tackle","81","329","","50","30","","","","","",""
"3124069","51709","259","Virginia Tech","ACC","Miami","2017","237","7","19","Isaiah Ford","Wide Receiver","73","194","218","35","47","Jacksonville","FL","USA","30.3321838","-81.655651","12031"
"3918026","52068","328","Utah State","Mountain West","Green Bay","2017","238","7","20","Devante Mays","Running Back","70","230","","55","30","Livingston","TX","USA","30.711029","-94.9329898","48373"
"3121409","51798","194","Ohio State","Big Ten","Dallas","2017","239","7","21","Noah Brown","Wide Receiver","74","222","226","36","46","Flanders","NJ","USA","40.8456549","-74.6948843","34027"
"555605","52013","2390","Miami","ACC","Jacksonville","2017","240","7","22","Marquez Williams","Fullback","70","259","","11","30","Athens","GA","USA","33.9597677","-83.376398","13059"
"3052143","52056","25","California","Pac-12","Tennessee","2017","241","7","23","Khalfrani Muhammad","Running Back","67","170","","37","30","","","","","",""
"3116690","51787","153","North Carolina","ACC","Las Vegas","2017","242","7","24","Elijah Hood","Running Back","71","232","289","28","37","Charlotte","NC","USA","35.2272","-80.843083","37119"
"-1004714","51757","239","Baylor","Big 12","Houston","2017","243","7","25","Kyle Fuller","Center","77","307","198","7","50","Wylie","TX","USA","33.0151201","-96.5388789","48085"
"532636","51959","2649","Toledo","Mid-American","Las Vegas","2017","244","7","26","Treyvon Hester","Defensive Tackle","74","300","224","20","46","Pittsburgh","PA","USA","40.4416941","-79.9900861","42003"
"549961","51978","152","NC State","ACC","Minnesota","2017","245","7","27","Jack Tocho","Cornerback","72","202","","35","30","Charlotte","NC","USA","35.2272","-80.843083","37119"
"3895487","100206","38","Colorado","Pac-12","Dallas","2017","246","7","28","Jordan Carrell","Defensive Tackle","74","290","","56","30","Roseville","CA","USA","38.7521235","-121.2880059","06061"
"559754","51582","99","LSU","SEC","Green Bay","2017","247","7","29","Malachi Dupre","Wide Receiver","75","196","113","15","70","New Orleans","LA","USA","29.9499323","-90.0701156","22071"
"545918","51862","2711","Western Michigan","Mid-American","Pittsburgh","2017","248","7","30","Keion Adams","Defensive End","74","247","","34","30","Salisbury","NC","USA","35.6709727","-80.4742261","37159"
"3919596","51904","197","Oklahoma State","Big 12","Seattle","2017","249","7","31","Christopher Carson","Running Back","72","218","","32","30","Lilburn","GA","USA","33.8901036","-84.1429719","13135"
"536062","100111","2199","Eastern Michigan","Mid-American","Detroit","2017","250","7","32","Pat O'Connor","Defensive End","77","277","","32","30","Chicago","IL","USA","41.8755616","-87.6244212","17031"
"531973","100412","2084","Buffalo","Mid-American","Cincinnati","2017","251","7","33","Mason Schreck","Tight End","77","253","","48","30","Medina","OH","USA","41.1383878","-81.8637474","39103"
"549935","51706","152","NC State","ACC","Cleveland","2017","252","7","34","Matthew Dayes","Running Back","69","205","140","11","63","Ft. Lauderdale","FL","USA","26.1223084","-80.1433786","12011"
"534580","51568","145","Ole Miss","SEC","Denver","2017","253","7","35","Chad Kelly","Quarterback","74","228","328","11","32","Buffalo","NY","USA","42.8867166","-78.8783922","36029"
